AccentCity,Population,Latitude,Longitude
Andorra la Vella,20430,42.5,1.5166667
Canillo,3292,42.5666667,1.6
Encamp,11224,42.5333333,1.5833333
La Massana,7211,42.55,1.5166667
Les Escaldes,15854,42.5,1.5333333
Ordino,2553,42.55,1.5333333
Sant Julia de Loria,8020,42.4666667,1.5
Abu Dhabi,603687,24.466667,54.366667
Dubai,1137376,25.258172,55.304717
Sharjah,543942,25.35731,55.403304
Acin,15098,34.082481,70.668152
Anar Darreh,10023,32.758698,61.653969
Andarab,27034,35.633484,69.260195
Asadabad,48400,34.873113,71.14697
Asmar,15708,35.033328,71.358087
Aybak,47877,36.26468,68.015512
Azrow,12526,34.173553,69.645728
Baglan,108481,36.130684,68.708286
Bagrami,30256,34.493761,69.274274
Baraki Barak,22305,33.9675,68.948611
Cah Ab,23424,37.397734,69.814644
Carikar,53693,35.016585,69.174011
Ciras,12778,35.416737,65.982341
Dawlatabad,13603,36.432589,64.920713
Dawlatabad,17674,36.98782,66.82066
Deh Rawud,25683,32.624131,65.459659
Eskasem,12120,36.706932,71.570658
Farah,43574,32.374508,62.116383
Gardan Diwal,6815,34.508977,68.260739
Gardez,103732,33.597439,69.225922
Gazni,143049,33.550833,68.4225
Geresk,43638,31.820894,64.570048
Herat,272880,34.348167,62.199673
Jalalabad,200389,34.426468,70.45153
Jurm,12121,36.864768,70.834207
Kabul,3043589,34.516667,69.183333
Kholm,64954,36.697362,67.698255
Khowst,96246,33.339512,69.92041
Kuhestan,12087,34.653889,61.197778
Kusk,16952,33.29565,61.952206
Lar Gerd,11635,35.489361,66.664088
Mehtar Lam,17350,34.671389,70.209444
Mirabad,14160,30.436244,61.838304
Nahrin,22389,36.064904,69.13343
Nuristan,17072,34.95,70.4
Orgun,10665,32.901111,69.152798
Pagman,49173,34.5875,68.953333
Panjab,13471,34.387949,67.023273
Qandahar,391230,31.613323,65.710126
Qarchi Gak,8942,37.039988,66.788912
Qarqin,15023,37.404464,66.074375
Qunduz,161943,36.728955,68.857001
Rostaq,25644,37.126035,69.83045
Rudbar,11034,30.15,62.6
Sahrak,15967,34.107375,64.305199
Sangin,13579,32.072752,64.835903
Sar-e Pul,52138,36.215443,65.932487
Sharan,7368,33.146667,68.791667
Shibarghan,55658,36.667567,65.752904
Sindand,29273,33.302944,62.1474
Tagab,6400,34.855007,69.64917
Taloqan,64275,36.734133,69.533559
Taywarah,14398,33.521176,64.421156
Tir Pol,6979,34.594307,61.268951
Tokzar,12021,35.948308,66.42132
Uruzgan,13400,32.927751,66.632534
Zaranj,33894,30.966667,61.883333
All Saints,2526,17.05,-61.8
Carlisle,831,17.1333333,-61.8
Codrington,682,17.6333333,-61.8333333
Freetown,623,17.05,-61.7
Liberta,1668,17.0333333,-61.7833333
Old Road,623,17.0166667,-61.8333333
Parham,969,17.0833333,-61.7666667
Swetes,727,17.05,-61.8
The Valley,1379,18.2166667,-63.05
Bajram Curri,7967,42.3572222,20.0730556
Ballsh,10361,40.5988889,19.7347222
Berat,47606,40.7058333,19.9522222
Bilisht,7114,40.6275,20.99
Bulqize,11212,41.4916667,20.2219444
Burrel,15539,41.6102778,20.0088889
Cerrik,14269,41.0316667,19.9758333
Corovode,14046,40.5041667,20.2272222
Delvine,3916,39.9511111,20.0977778
Durres,122034,41.3230556,19.4413889
Elbasan,100903,41.1125,20.0822222
Erseke,7890,40.3377778,20.6788889
Fier,59719,40.7238889,19.5561111
Fierze,742,42.2647222,20.0269444
Fierze,742,42.2605556,20.0169444
Fushe-Arrez,2438,42.0622222,20.0166667
Fushe-Kruje,10458,41.4783333,19.7177778
Gjirokaster,23437,40.0758333,20.1388889
Gramsh,11556,40.8697222,20.1844444
Himare,4596,40.1016667,19.7447222
Kamze,11026,41.3816667,19.7602778
Kavaje,29354,41.1855556,19.5569444
Kelcyre,2486,40.3130556,20.1894444
Kerrabe,1177,41.2155556,19.9713889
Klos,683,41.4844444,20.1080556
Konispol,1349,39.6588889,20.1813889
Koplik,4078,42.2136111,19.4363889
Korce,58259,40.6186111,20.7808333
Kraste,1168,41.4225,20.205
Kruje,21286,41.5091667,19.7927778
Kucove,18166,40.8002778,19.9166667
Kukes,17972,42.0769444,20.4219444
Kurbnesh,1429,41.7797222,20.0836111
Lac,24825,41.6355556,19.7130556
Leskovik,2655,40.1513889,20.5972222
Lezhe,18695,41.7836111,19.6436111
Libohove,3651,40.0311111,20.2630556
Librazhd,12691,41.1794444,20.315
Lushnje,41423,40.9419444,19.705
Maliq,3735,40.7058333,20.6997222
Mamurras,8282,41.5775,19.6922222
Memaliaj,4951,40.3458333,19.9791667
Milot,2157,41.6802778,19.7244444
Orikum,2604,40.3252778,19.4713889
Patos,22679,40.6833333,19.6194444
Peqin,7513,41.0461111,19.7511111
Permet,10686,40.2336111,20.3516667
Perrenjas,4015,41.0730556,20.5488889
Peshkopi,15261,41.685,20.4288889
Pogradec,25758,40.9025,20.6525
Polican,10663,40.6122222,20.0980556
Puke,6495,42.0444444,19.8997222
Roskovec,6657,40.7375,19.7022222
Rreshen,10064,41.7675,19.8755556
Rrogozhine,5620,41.0763889,19.6652778
Rubik,2332,41.7744444,19.7861111
Sarande,15147,39.8755556,20.0052778
Selenice,6912,40.5305556,19.6358333
Shengjin,2698,41.8136111,19.5938889
Shijak,14138,41.3455556,19.5672222
Shkoder,89102,42.0675,19.5130556
Tepelene,11955,40.2958333,20.0191667
Tirana,374801,41.3275,19.8188889
Ulze,600,41.6827778,19.8933333
Vlore,89528,40.4666667,19.4897222
Vore,4973,41.3908333,19.655
Abovyan,1379,40.0488889,44.5475
Abovyan,35677,40.2691667,44.6244444
Agarakadzor,1195,39.7363889,45.3455556
Agarak,1575,40.3077778,44.2847222
Agarak,1278,41.0105556,44.4675
Agarak,4707,39.2038889,46.5472222
Aghavnadzor,1252,40.5841667,44.6913889
Aghavnadzor,1925,39.7836111,45.2280556
Aghavnatun,2913,40.2336111,44.2513889
Akhuryan,7672,40.7813889,43.8963889
Aknalich,2654,40.1430556,44.1483333
Aknashen,1362,40.0958333,44.2861111
Alaverdi,13186,41.1305556,44.6519444
Amasia,1675,40.9466667,43.7813889
Amberd,1267,40.2416667,44.2727778
Anushavan,1532,40.6419444,43.9822222
Apaga,1634,40.0961111,44.2511111
Aparan,5670,40.5961111,44.3536111
Aragats,2952,40.3330556,43.6580556
Aragats,5092,40.2183333,44.2327778
Aragyukh,999,40.4025,44.5436111
Aramus,3214,40.2511111,44.6630556
Arapi,1738,40.7797222,43.8005556
Ararat,6554,39.8094444,44.7144444
Arazap,1373,40.0427778,44.1458333
Archis,1235,41.1641667,44.8725
Areni,1718,39.7208333,45.1838889
Arevabuyr,1041,40.0361111,44.4688889
Arevashat,1403,40.1416667,44.3708333
Arevashogh,2435,40.8613889,44.2727778
Arevik,2455,40.1005556,44.0969444
Arevik,1522,40.7361111,43.8927778
Arevshat,2089,40.0391667,44.5416667
Arevshat,1623,40.6486111,44.0444444
Argavand,1703,40.1580556,44.44
Argavand,2047,40.0608333,44.0952778
Argel,2528,40.3794444,44.5994444
Armash,2434,39.7666667,44.8083333
Armavir,2752,40.0897222,44.0483333
Arshaluys,3808,40.1688889,44.2141667
Artashat,20562,39.9538889,44.5505556
Arteni,3086,40.2983333,43.7541667
Artimet,1501,40.1513889,44.2663889
Artsvaberd,3193,40.8336111,45.4711111
Artsvanist,2819,40.1544444,45.5022222
Arzakan,2660,40.4494444,44.6063889
Arzni,2244,40.2963889,44.5958333
Ashnak,1131,40.3275,43.9166667
Ashtarak,18779,40.3016667,44.3591667
Astghadzor,3520,40.1238889,45.3566667
Avshar,4215,39.8405556,44.6836111
Aygavan,3758,39.8647222,44.6702778
Aygedzor,2535,39.4627778,46.4152778
Aygehovit,2888,40.9744444,45.2519444
Aygek,1095,40.1886111,44.3833333
Aygepat,1349,39.95,44.6
Aygeshat,1358,40.2355556,44.2866667
Aygeshat,1606,40.0666667,44.0666667
Aygestan,2431,40.0030556,44.5575
Aygezard,3192,39.9458333,44.6088889
Aygut,997,40.6841667,45.1730556
Ayrum,2174,41.195,44.8925
Ayrum,2174,41.1716667,44.8191667
Azatamut,1850,40.9758333,45.1980556
Azatan,4448,40.7238889,43.8205556
Azatavan,2886,39.9833333,44.5
Azatavan,2886,40.1333333,44.0666667
Baghramyan,1690,40.1908333,43.8494444
Bagratashen,3024,41.2458333,44.8211111
Balahovit,2982,40.2536111,44.6038889
Bambakashat,3089,40.1144444,44.0122222
Bardzrashen,1273,40.0852778,44.5786111
Bazum,1114,40.8680556,44.4455556
Berdavan,3150,41.2027778,45.0033333
Berd,8374,40.8808333,45.3916667
Brnakot,1912,39.4969444,45.9730556
Brun,1028,39.5338889,46.3030556
Buzhakan,1678,40.4552778,44.5205556
Byurakan,3902,40.3413889,44.2736111
Byuravan,1228,40.0161111,44.5186111
Byureghavan,6972,40.3147222,44.5936111
Chambarak,6153,40.5952778,45.3475
Chochkan,1740,41.1861111,44.8313889
Dalar,2504,39.9669444,44.5363889
Dalarik,3080,40.2183333,43.8602778
Darakert,2325,40.1058333,44.4138889
Darpas,1785,40.8380556,44.4233333
Dashtavan,1762,40.1016667,44.3905556
Ddmashen,2157,40.5719444,44.8122222
Dilijan,13480,40.7408333,44.8630556
Dimitrov,1212,40.0080556,44.4880556
Doghs,1186,40.2227778,44.2716667
Drakhtik,1016,40.5688889,45.2319444
Dsegh,2484,40.9633333,44.6516667
Dvin,2795,40.02,44.5852778
Dzitankov,1162,40.5155556,43.8133333
Dzoraghbyur,2011,40.205,44.6430556
Dzoragyukh,3570,40.1752778,45.175
Fantan,1019,40.3941667,44.685
Fioletovo,1264,40.7247222,44.7138889
Gagarin,1305,40.5369444,44.8577778
Gandzak,3841,40.3147222,45.1113889
Garni,6827,40.1194444,44.7230556
Gavar,21681,40.3588889,45.1266667
Gay,3309,40.0838889,44.3055556
Geghamasar,1060,40.3116667,45.68
Geghamavan,1597,40.5619444,44.8827778
Geghanist,2409,40.1497222,44.4344444
Getahovit,2005,40.8958333,45.1313889
Getashen,2114,40.0433333,43.9447222
Getazat,1947,40.0380556,44.5638889
Ghukasavan,2113,40.1261111,44.4177778
Gladzor,2080,39.7783333,45.3477778
Gogaran,1088,40.8955556,44.1991667
Goris,20379,39.5077778,46.3386111
Gosh,994,40.7225,45.0033333
Griboyedov,1879,40.1130556,44.2716667
Gyulagarak,2109,40.9697222,44.4713889
Gyumri,148383,40.7894444,43.8475
Haghartsin,3370,40.7780556,44.9625
Hayanist,2031,40.1197222,44.3775
Haykashen,1140,40.0727778,44.3069444
Haykavan,1201,40.7558333,43.77
Hnaberd,1817,40.6427778,44.1444444
Hoktember,5348,40.1361111,44.0138889
Horom,1893,40.6541667,43.8822222
Hovtashat,3472,40.1019444,44.3427778
Hovtashen,1134,40.0244444,44.45
Hrazdan,40796,40.5016667,44.7547222
Ijevan,14737,40.8755556,45.1491667
Janfida,2986,40.0455556,44.0208333
Jermuk,4582,39.8416667,45.6722222
Jrahovit,1032,40.0452778,44.4736111
Jrashen,3078,40.7875,44.1972222
Jrashen,1696,40.0547222,44.5133333
Kamaris,2064,40.2358333,44.6938889
Kamo,1340,40.8280556,43.9483333
Kanakeravan,2950,40.2472222,44.5366667
Kapan,33161,39.2011111,46.415
Kaputan,1252,40.3244444,44.6938889
Karbi,3521,40.3338889,44.3777778
Karchaghbyur,2274,40.1638889,45.5722222
Kasakh,4247,40.5333333,44.4166667
Khashtarak,1728,40.9386111,45.1797222
Khndzoresk,1940,39.5122222,46.4336111
Kosh,2581,40.3072222,44.16
Lanjaghbyur,2097,40.2730556,45.1444444
Lchashen,4182,40.5202778,44.9308333
Lenughi,1499,40.1238889,43.9652778
Lernakert,1306,40.5669444,43.9361111
Lernanist,2511,40.4675,44.7980556
Lernantsk,1192,40.7955556,44.2783333
Lernapat,1710,40.82,44.3972222
Lernavan,1517,40.7883333,44.1844444
Lorut,1101,40.9388889,44.7725
Lukashin,2197,40.1758333,44.0186111
Madina,1024,40.0802778,45.2511111
Maisyan,1521,40.8530556,43.8294444
Malishka,4174,39.7369444,45.3875
Maralik,4959,40.5722222,43.8669444
Margahovit,3308,40.7380556,44.6875
Margara,1360,40.0336111,44.1738889
Marmarashen,2946,40.0575,44.4711111
Marmashen,1644,40.8375,43.7719444
Martuni,11037,40.1447222,45.3063889
Masis,18911,40.0138889,44.4858333
Mayakovski,1727,40.2522222,44.6383333
Meghradzor,2659,40.6147222,44.6522222
Meghrashen,1107,40.6758333,43.9486111
Meghri,4540,38.9022222,46.2383333
Merdzavan,2702,40.1816667,44.3991667
Metsamor,8789,40.0713889,44.2891667
Metsavan,4767,41.2016667,44.2288889
Mets Masrik,2570,40.2186111,45.7694444
Mets Parni,1934,40.8372222,44.1091667
Mosesgegh,1964,40.9063889,45.4913889
Mrganush,1032,40.0286111,44.5586111
Mrgashat,4961,40.1297222,44.0705556
Mrgashen,1623,40.285,44.5422222
Mrgavan,1713,39.9661111,44.5333333
Mrgavet,2131,40.0283333,44.4827778
Musaler,2323,40.1544444,44.3777778
Musayelyan,1499,40.7652778,43.9908333
Myasnikyan,3458,40.1775,43.9063889
Nalbandyan,4019,40.0677778,43.9855556
Navur,1227,40.8613889,45.3175
Nizami,1060,40.0913889,44.4041667
Norakert,2485,40.1922222,44.3466667
Noramarg,1811,40.0236111,44.4244444
Nor Armavir,1597,40.0866667,43.99
Norashen,3049,40.0041667,44.5947222
Norashen,1386,41.1880556,44.3272222
Noratus,5426,40.3822222,45.1783333
Nor Geghi,4896,40.3211111,44.5797222
Nor Gyukh,1462,40.2666667,44.6563889
Nor Yerznka,1459,40.3133333,44.4047222
Noyakert,1751,39.8166667,44.6669444
Noyemberyan,5119,41.1725,44.9936111
Nshavan,1916,40.0263889,44.5252778
Odzun,4524,41.0538889,44.6113889
Oshakan,4768,40.2705556,44.2691667
Paravakar,1637,40.9805556,45.3991667
Pemzashen,2436,40.5933333,43.94
Pokr Mantash,1838,40.65,44.05
Proshyan,4333,40.2480556,44.415
Pshatavan,2159,40.0405556,44.0675
Ptghni,1231,40.2566667,44.585
Ranchpar,989,40.0252778,44.3702778
Rind,1368,39.7597222,45.18
Samaghar,2343,40.1852778,44.2422222
Saramech,1111,40.7725,44.2191667
Saratak,1115,40.67,43.8663889
Sarigyukh,1096,41.0563889,45.1458333
Sarukhan,6173,40.2891667,45.1341667
Sasunik,1959,40.2472222,44.3380556
Sevan,17083,40.555,44.9536111
Shaghat,1011,39.5616667,45.9122222
Shahumyan,3905,39.9308333,44.5783333
Shahumyan,1843,40.7883333,44.5316667
Shatin,1671,39.8333333,45.3016667
Shenavan,1587,40.4861111,44.3825
Shenavan,1757,40.05,43.9333333
Shinuhayr,2206,39.4341667,46.3155556
Shirakamut,2008,40.8605556,44.1527778
Shirak,1007,40.8480556,43.9213889
Shnogh,2872,41.1477778,44.8377778
Sisavan,1793,39.9,44.6666667
Sisian,15208,39.4627778,45.9730556
Sis,1135,40.0586111,44.3863889
Solak,2295,40.4636111,44.7086111
Sovetakan,1613,40.1133333,44.0552778
Spandaryan,1226,40.665,44.0188889
Spitak,15063,40.7955556,44.2783333
Surenavan,2241,39.75,44.8
Talin,4945,40.3369444,43.8588889
Tandzut,1816,40.0772222,44.0886111
Taronik,1874,40.1330556,44.1991667
Tashir,7318,41.1244444,44.2819444
Tazagyukh,2248,40.1416667,45.1913889
Tegh,2120,39.5547222,46.4758333
Tsaghkaber,1207,40.7986111,44.1072222
Tsaghkadzor,1408,40.5386111,44.7113889
Tsaghkahovit,1551,40.6361111,44.2230556
Tsiatsan,1050,40.1869444,44.2666667
Tsovagyugh,3857,40.6330556,44.9522222
Tsovak,2531,40.1819444,45.635
Tsovazard,1949,40.4769444,45.0375
Tsovinar,3968,40.1608333,45.4538889
Tumanyan,1693,40.9633333,44.6516667
Urut,1102,41.0711111,44.3969444
Ushi,1276,40.3536111,44.3686111
Vagharshapat,49514,40.1727778,44.2925
Vaghashen,3235,40.1377778,45.3291667
Vahagni,1184,40.9080556,44.6069444
Vahan,1153,40.57,45.3955556
Vanadzor,101099,40.8127778,44.4883333
Vardablur,1297,40.95,44.4666667
Vardadzor,2095,40.1916667,45.1875
Vardenik,7709,40.135,45.4363889
Vardenis,11382,40.1805556,45.7283333
Varser,1614,40.5561111,44.9111111
Vedi,12192,39.9105556,44.7277778
Verin Artashat,3931,40.0005556,44.585
Verin Dvin,1853,40.0252778,44.5908333
Verin Getashen,4173,40.1327778,45.2486111
Verishen,2114,39.5358333,46.3119444
Vernashen,1162,39.7938889,45.3633333
Voskehask,1803,40.7383333,43.7758333
Voskehat,2181,40.1413889,44.3291667
Voskevan,1287,41.1191667,45.0652778
Voskevaz,3789,40.2797222,44.295
Vostan,2925,39.9588889,44.5591667
Yeghegnavan,1221,39.8277778,44.6372222
Yeghegnut,1746,40.0902778,44.1625
Yeghegnut,1154,40.9041667,44.6325
Yeghvard,10705,40.3216667,44.4813889
Yeraskhahun,1346,40.0722222,44.2158333
Yerazgavors,1285,40.7,43.75
Yerevan,1093499,40.1811111,44.5136111
Zangakatun,1130,39.8094444,45.0511111
Zaritap,1323,39.6372222,45.5086111
Zar,1340,40.2611111,44.7361111
Zhdanov,1512,40.1616667,44.0883333
Zorak,1390,40.0925,44.3919444
Zoravan,1167,40.3569444,44.5230556
Zovaber,1470,40.5736111,44.7863889
Zovuni,4484,40.5108333,44.4288889
Barber,2424,12.2833333,-69.0666667
Golden Rock,823,17.4833333,-62.9833333
Hato,13,12.1833333,-68.2833333
Kralendijk,3081,12.15,-68.2666667
Lagun,289,12.3166667,-69.1666667
Nieuwpoort,1937,12.05,-68.8166667
Oranjestad,1097,17.4666667,-62.9833333
Rincon,1496,12.2333333,-68.3333333
Sint Michiel,5138,12.1333333,-68.9833333
Soto,1987,12.2666667,-69.1
The Bottom,488,17.6333333,-63.25
Westpunt,783,12.3666667,-69.1666667
Willemstad,97590,12.1,-68.9166667
Windward Side,442,17.6333333,-63.2333333
Benguela,151235,-12.578333,13.407222
Caala,21205,-12.8525,15.560556
Cabinda,66020,-5.55,12.2
Caconda,10551,-13.733333,15.066667
Caluquembe,30305,-13.783333,14.683333
Camabatela,12839,-8.18812,15.37495
Camacupa,19150,-12.016667,17.483333
Catabola,18858,-12.15,17.283333
Catumbela,16980,-12.431389,13.547222
Caxito,28229,-8.58,13.664167
Cazaje,4764,-11.067147,20.701483
Chissamba,7677,-12.166667,17.333333
Huambo,226177,-12.776111,15.739167
Kibala,8915,-10.73366,14.979949
Kuito,113624,-12.383333,16.933333
Leua,5168,-11.65,20.45
Lobito,207957,-12.319722,13.599722
Longonjo,24350,-12.906667,15.253333
Luanda,2776125,-8.836804,13.233174
Luau,18465,-10.707273,22.22466
Lubango,102541,-14.916667,13.5
Lucapa,20115,-8.419151,20.744655
Luena,21115,-11.783333,19.916667
Lumeje,4972,-11.55,20.783333
Malanje,87047,-9.544722,16.345278
Menongue,19141,-14.661639,17.688224
Namibe,80150,-15.196111,12.152222
Ondjiva,10169,-17.066667,15.733333
Saurimo,40498,-9.66078,20.391553
Soyo,67553,-6.134903,12.368935
Sumbe,33278,-11.206048,13.843713
Uige,60008,-7.613282,15.056621
Alta Gracia,40385,-31.652925,-64.428259
Azul,52333,-36.776976,-59.858539
Bahia Blanca,282950,-38.719595,-62.272432
Bell Ville,35106,-32.625906,-62.68873
Campana,83175,-34.168742,-58.95914
Catamarca,213601,-28.469574,-65.785239
Chacabuco,34587,-34.641667,-60.473889
Chivilcoy,52307,-34.895661,-60.016667
Comodoro Rivadavia,142597,-45.864135,-67.496558
Concepcion del Uruguay,72904,-32.482493,-58.237217
Concordia,155686,-31.392959,-58.02089
Cordoba,1441007,-31.413496,-64.181052
Corrientes,390481,-27.480596,-58.834099
Dolores,25190,-36.313215,-57.679185
Eldorado,62823,-26.404841,-54.624784
Formosa,248756,-26.177534,-58.178139
General Pico,55900,-35.656622,-63.756815
General Roca,76066,-39.02797,-67.573711
Goya,70340,-29.14003,-59.262564
Gualeguaychu,88218,-33.009375,-58.51722
Gualeguay,33120,-33.141559,-59.309657
Jujuy,277150,-24.194565,-65.297116
Junin,76369,-34.583816,-60.943318
La Plata,684318,-34.921454,-57.954533
La Rioja,178497,-29.411048,-66.850668
Libertador General San Martin,49273,-23.806443,-64.787574
Lincoln,24798,-34.866494,-61.530197
Lujan,74823,-34.570278,-59.105
Lujan,77625,-33.035471,-68.877823
Mar del Plata,645771,-38.002278,-57.557539
Mendoza,973047,-32.890845,-68.827171
Mercedes,49067,-34.651455,-59.430676
Mercedes,30649,-29.181858,-58.078951
Mercedes,126559,-33.674359,-65.461405
Necochea,84969,-38.547259,-58.736753
Neuquen,359037,-38.951606,-68.059102
Nueve de Julio,34717,-35.444374,-60.883131
Obera,58939,-27.487059,-55.11994
Olavarria,80005,-36.892715,-60.32254
Parana,299257,-31.731967,-60.523802
Pergamino,86708,-33.889949,-60.573568
Posadas,313438,-27.367077,-55.896078
Presidencia Roque Saenz Pena,89584,-26.785221,-60.438761
Puerto Madryn,95547,-42.769201,-65.038513
Punta Alta,53117,-38.875875,-62.073589
Rafaela,84025,-31.250332,-61.486696
Rawson,26341,-43.300158,-65.10228
Reconquista,95979,-29.15,-59.65
Resistencia,406967,-27.46056,-58.983886
Rio Cuarto,174058,-33.130671,-64.349918
Rio Gallegos,93234,-51.622613,-69.218127
Rio Tercero,53396,-32.173008,-64.114055
Rivadavia,65641,-33.190509,-68.46081
Rosario,1218497,-32.946818,-60.639317
Salta,548288,-24.785896,-65.411664
San Carlos de Bariloche,110044,-41.140293,-71.301369
San Francisco,71444,-31.427971,-62.082656
San Juan,469958,-31.5375,-68.536389
San Lorenzo,47627,-28.133061,-58.767331
San Luis,184869,-33.295012,-66.335627
San Martin,107554,-33.081031,-68.468138
San Nicolas,130705,-33.335784,-60.225233
San Pedro,67514,-33.679127,-59.666635
San Pedro,43124,-24.231266,-64.866141
San Rafael,125033,-34.617717,-68.330066
San Ramon de la Nueva Oran,84504,-23.13398,-64.324645
Santa Fe,456044,-31.629484,-60.701036
Santa Rosa,89478,-36.616667,-64.283333
Santiago del Estero,407636,-27.795112,-64.261489
San Vicente,84333,-34.982645,-58.376169
Tandil,100127,-37.321674,-59.133164
Tartagal,63600,-22.516365,-63.801314
Trelew,107883,-43.250075,-65.313295
Tres Arroyos,47143,-38.373939,-60.279781
Tucuman,828402,-26.824144,-65.2226
Ushuaia,58045,-54.8,-68.3
Veinticinco de Mayo,24668,-35.432303,-60.172707
Venado Tuerto,71794,-33.745564,-61.968845
Victoria,25139,-32.619888,-60.153907
Viedma,76553,-40.813452,-62.996676
Villa Carlos Paz,61095,-31.424138,-64.497778
Villa Constitucion,44278,-33.227778,-60.329699
Villa Maria,92337,-32.407514,-63.240161
Zarate,88222,-34.098142,-59.028585
Absam,6594,47.3,11.5
Abtenau,5829,47.55,13.35
Altach,6040,47.35,9.65
Althofen,4833,47.15,14.233333
Altmunster,9652,47.9,13.75
Amstetten,22832,48.116667,14.866667
Anif,4154,47.75,13.066667
Ansfelden,14936,48.2,14.283333
Arnoldstein,6923,46.546111,13.71
Asten,6517,48.216667,14.4
Axams,5560,47.233333,11.3
Bad Aussee,5210,47.6,13.783333
Baden,24893,48.016667,16.233333
Bad Goisern,7869,47.633333,13.616667
Bad Hall,4935,48.033333,14.2
Bad Hofgastein,7002,47.166667,13.1
Bad Ischl,14267,47.716667,13.616667
Bad Sankt Leonhard,4775,46.962778,14.791667
Bad Voslau,11013,47.966667,16.2
Barnbach,4850,46.983333,16.05
Bergheim,5031,47.833333,13.033333
Berndorf,8796,47.95,16.1
Bischofshofen,10145,47.416667,13.216667
Bludenz,13904,47.149722,9.816667
Braunau,16403,48.266667,13.033333
Bregenz,26928,47.5,9.766667
Bruck an der Leitha,7339,48.016667,16.766667
Bruck an der Mur,13254,47.416667,15.283333
Deutschlandsberg,8049,46.815278,15.222222
Deutsch-Wagram,7153,48.299722,16.566667
Dornbirn,43013,47.416667,9.733056
Ebbs,5088,47.633333,12.216667
Ebensee,8376,47.8,13.766667
Ebenthal,7809,46.608056,14.364167
Eberndorf,6089,46.591389,14.643611
Ebreichsdorf,9509,47.95,16.4
Eisenerz,5987,47.533333,14.883333
Eisenstadt,11767,47.85,16.516667
Engerwitzdorf,8510,48.35,14.45
Enns,10816,48.2,14.466667
Feldbach,4877,46.953056,15.888333
Feldkirchen an der Donau,5286,48.35,14.05
Feldkirchen,14440,46.716667,14.1
Feldkirch,29446,47.233056,9.6
Ferlach,7661,46.526944,14.301944
Finkenstein,8406,46.565556,13.865278
Fohnsdorf,8203,47.2,14.683333
Frankenburg,5162,48.066667,13.483333
Freistadt,7574,48.5,14.5
Friesach,5369,46.955278,14.405833
Frohnleiten,6629,47.266667,15.316667
Fugen,3734,47.35,11.85
Furstenfeld,5962,47.05,16.083333
Gallneukirchen,6282,48.35,14.416667
Ganserndorf,8588,48.35,16.733333
Garsten,6657,48.016667,14.4
Gleisdorf,5245,47.1,15.716667
Gloggnitz,6213,47.666667,15.933333
Gmunden,13287,47.916667,13.8
Gmund,5811,48.766667,14.983333
Gotzis,10342,47.333056,9.633056
Gratkorn,6806,47.133333,15.35
Graz,222326,47.066667,15.45
Grieskirchen,4766,48.233333,13.833333
Grodig,6918,47.733333,13.033333
Guntramsdorf,9071,48.033333,16.3
Haag,5164,48.15,15.5
Hainburg,5622,48.15,16.933333
Hallein,18980,47.683333,13.1
Hall,11197,47.6,14.45
Hard,11766,47.483056,9.683056
Heidenreichstein,4472,48.866667,15.116667
Hermagor,7242,46.627222,13.367222
Herzogenburg,7866,48.266667,15.683333
Himberg,5534,48.083333,16.433333
Hochst,7207,47.466667,9.633056
Hohenems,14072,47.366667,9.683056
Hollabrunn,10966,48.55,16.083333
Hopfgarten,5314,47.45,12.166667
Horbranz,6414,47.55,9.75
Horn,6485,48.65,15.65
Horsching,5312,48.233333,14.183333
Imst,9225,47.233333,10.733333
Innsbruck,112467,47.266667,11.4
Jenbach,6806,47.4,11.783333
Jennersdorf,4319,46.939167,16.146667
Judenburg,9992,47.166667,14.666667
Kapfenberg,21819,47.433333,15.3
Kindberg,5790,47.5,15.45
Kirchbichl,5115,47.516667,12.083333
Kitzbuhel,8818,47.45,12.383333
Klagenfurt,90610,46.624722,14.305278
Klosterneuburg,24843,48.3,16.316667
Knittelfeld,12704,47.216667,14.816667
Koflach,10447,47.066667,15.083333
Korneuburg,11498,48.35,16.333333
Kottingbrunn,7184,47.95,16.216667
Krems,24092,48.416667,15.6
Kremsmunster,6626,48.05,14.133333
Krieglach,5236,47.533333,15.55
Kuchl,6668,47.616667,13.15
Kufstein,16116,47.583333,12.166667
Laakirchen,9569,47.966667,13.816667
Laa,6084,48.716667,16.383333
Landeck,7351,47.133333,10.566667
Langenlois,7081,48.466667,15.666667
Langenzersdorf,7733,48.3,16.35
Lauterach,9212,47.483056,9.733056
Leibnitz,7029,46.781667,15.541667
Lenzing,5044,47.966667,13.616667
Leoben,24809,47.383333,15.1
Leonding,22736,48.266667,14.25
Lienz,12270,46.831111,12.759722
Liezen,6903,47.566667,14.233333
Linz,181163,48.3,14.3
Lochau,5209,47.533333,9.75
Lustenau,20218,47.433056,9.65
Marchtrenk,11666,48.183333,14.116667
Maria Enzersdorf,8085,48.1,16.283333
Matrei,5076,47,12.533333
Mattersburg,6448,47.733333,16.4
Melk,5272,48.216667,15.316667
Micheldorf,5902,47.85,14.133333
Mistelbach,10820,48.57,16.576667
Mittelberg,4627,47.2,9.65
Mittersill,5680,47.266667,12.483333
Modling,20710,48.083333,16.283333
Moosburg,4602,46.6575,14.174722
Murzzuschlag,9410,47.6,15.683333
Nenzing,5856,47.183056,9.7
Neudorfl,4183,47.783333,16.283333
Neulengbach,7521,48.2,15.9
Neunkirchen,11313,47.716667,16.083333
Neusiedl am See,5949,47.933333,16.833333
Nuziders,4628,47.166667,9.8
Oberndorf,5738,48.25,13.333333
Oberwart,6879,47.283333,16.2
Pasching,6143,48.25,14.2
Paternion,6301,46.714167,13.636111
Perchtoldsdorf,14041,48.116667,16.266667
Perg,7644,48.25,14.633333
Pinkafeld,5257,47.366667,16.116667
Pottendorf,6105,47.9,16.383333
Poysdorf,5653,48.666667,16.633333
Pressbaum,6083,48.183333,16.083333
Purgstall,5247,48.05,15.133333
Purkersdorf,8327,48.2,16.166667
Radstadt,4926,47.383333,13.45
Rankweil,11455,47.283056,9.65
Reichenau,2673,47.7,15.833333
Retz,4139,48.75,15.95
Reutte,5851,47.483333,10.716667
Ried,11511,48.216667,13.5
Rottenmann,5561,47.516667,14.35
Rum,8498,47.283333,11.45
Rust,1726,47.8,16.666667
Saalfelden,16119,47.416667,12.85
Salzburg,145310,47.8,13.033333
Sankt Andra,10825,46.766111,14.823611
Sankt Florian,5760,48.166667,13.133333
Sankt Georgen,4180,47.933333,13.483333
Sankt Jakob,4481,46.547778,14.057222
Sankt Johann im Pongau,10887,47.35,13.2
Sankt Polten,49000,48.2,15.633333
Sankt Valentin,9063,48.166667,14.516667
Sankt Veit,13116,46.768056,14.360278
Scharding,4919,48.45,13.433333
Scharnstein,4631,47.9,13.95
Schladming,4659,47.383333,13.683333
Schrems,5811,48.783333,15.066667
Schruns,3506,47.066667,9.916667
Schwaz,12507,47.333333,11.7
Schwechat,15711,48.133333,16.466667
Seeboden,6221,46.821944,13.495
Seekirchen,9865,47.9,13.133333
Seewalchen,4959,47.95,13.583333
Sieghartskirchen,7062,48.25,16
Sierning,8722,48.033333,14.3
Spittal,16363,46.8,13.5
Steyregg,4856,48.283333,14.366667
Steyr,39567,48.05,14.416667
Stockerau,14831,48.383333,16.216667
Strasshof,7637,48.316667,16.666667
Tamsweg,6126,47.133333,13.8
Telfs,14028,47.3,11.066667
Ternitz,15153,47.716667,16.033333
Thalgau,5501,47.833333,13.25
Timelkam,5855,48,13.6
Traiskirchen,16212,48.016667,16.283333
Traismauer,5815,48.35,15.733333
Traun,23959,48.216667,14.233333
Trofaiach,8313,47.416667,15
Tulln,14201,48.333333,16.05
Velden am Worthersee,8817,46.616111,14.045833
Vienna,1569315,48.2,16.366667
Villach,58882,46.610278,13.855833
Vocklabruck,11887,48.016667,13.65
Vocklamarkt,4869,48,13.483333
Voitsberg,9980,47.033333,15.15
Volkermarkt,11543,46.662222,14.634444
Vols,6573,47.25,11.333333
Vomp,4628,47.333333,11.683333
Vorchdorf,7456,48,13.916667
Waidhofen,11774,47.966667,14.766667
Wattens,7517,47.283333,11.6
Weiz,9128,47.216667,15.616667
Wels,57947,48.166667,14.033333
Wernberg,5070,46.616667,13.933333
Wiener Neudorf,8530,48.066667,16.316667
Wiener Neustadt,38481,47.8,16.25
Wilhelmsburg,6718,48.1,15.6
Wolfsberg,25610,46.840556,14.844167
Wolfurt,8110,47.466667,9.75
Wolkersdorf,6416,48.383333,16.516667
Worgl,11265,47.483333,12.066667
Ybbs,5676,48.166667,15.083333
Zell am See,10046,47.316667,12.783333
Zeltweg,7726,47.183333,14.75
Zirl,6567,47.283333,11.233333
Zistersdorf,5661,48.533333,16.75
Zwettl,11718,48.616667,15.166667
Adelaide,1074168,-34.928661,138.598633
Albany,23913,-35.003101,117.865952
Albury,104261,-36.07494,146.923935
Alice Springs,26188,-23.697479,133.883621
Alyangula,1289,-13.85413,136.421295
Ararat,6111,-37.285419,142.927277
Armidale,22673,-30.50828,151.671234
Atherton,6959,-17.268641,145.47522
Australind,6621,-33.279202,115.715042
Ayr,9079,-19.573931,147.406662
Bairnsdale,11006,-37.822891,147.610413
Ballarat,85110,-37.56266,143.862579
Ballina,14248,-28.86414,153.565414
Batemans Bay,10557,-35.706581,150.175415
Benalla,9020,-36.551128,145.984253
Bendigo,81658,-36.758179,144.280243
Biloela,6309,-24.416667,150.5
Blackwater,7250,-23.583509,148.87912
Bongaree,13649,-27.08367,153.159424
Bowen,10983,-20.01367,148.247543
Bowral,9605,-34.477501,150.420395
Brisbane,1843459,-27.47101,153.024292
Broken Hill,17395,-31.961729,141.459976
Broome,13218,-17.955379,122.23922
Buderim,15228,-26.684429,153.057053
Bunbury,26370,-33.32711,115.641373
Bundaberg,52478,-24.866211,152.3479
Burnie,19976,-41.05584,145.903748
Burpengary,8280,-27.161131,152.959442
Busselton,12374,-33.652489,115.345497
Byron Bay,6764,-28.64201,153.611938
Caboolture,21478,-27.08465,152.951096
Cairns,154318,-16.92304,145.766251
Caloundra,38714,-26.797091,153.137711
Canberra,324025,-35.27603,149.13435
Carnarvon,7392,-24.88073,113.659401
Casino,9539,-28.858191,153.047485
Castlemaine,6604,-37.067089,144.216843
Cessnock,16394,-32.832111,151.356232
Charters Towers,9574,-20.07671,146.263535
Clifton Springs,7413,-38.1567,144.555099
Coffs Harbour,62978,-30.296261,153.11351
Colac,9089,-38.339001,143.584885
Collie,6337,-33.362061,116.156174
Coolum Beach,8555,-26.533331,153.091232
Cooma,6520,-36.234692,149.125977
Cootamundra,4934,-34.640949,148.028381
Corowa,5179,-35.999619,146.385803
Cowra,6799,-33.835541,148.696625
Craigieburn,19728,-37.6,144.95
Cranbourne,39420,-38.113419,145.283264
Crib Point,6908,-38.35,145.2
Dalby,9848,-27.18169,151.262054
Darwin,93081,-12.45722,130.836639
Deception Bay,16090,-27.193541,153.026306
Deniliquin,8024,-35.527409,144.959579
Devonport,19318,-41.176949,146.351517
Dubbo,29362,-32.24295,148.604843
Emerald,9399,-23.522961,148.157837
Esperance,7889,-33.86013,121.882591
Flinders,15000,-32.79924,134.211594
Forbes,4838,-33.384361,148.007599
Galiwinku,1347,-12.02811,135.564865
Gatton,6513,-27.558729,152.276184
Gawler,16362,-34.602509,138.749023
Geelong,150438,-38.153461,144.358093
Geraldton,27259,-28.778971,114.614594
Gladstone,30493,-23.84761,151.256348
Gold Coast,501175,-28.00029,153.430878
Goulburn,20941,-34.751549,149.720856
Grafton,16399,-29.690121,152.933365
Griffith,15456,-34.288528,146.050934
Gunnedah,7148,-30.98065,150.258377
Gympie,11029,-26.189159,152.658188
Hamilton,8869,-37.74334,142.028915
Hastings,6583,-38.3,145.183333
Healesville,7098,-37.65395,145.517181
Hervey Bay,47561,-25.285,152.873
Hobart,204863,-42.883209,147.331665
Horsham,12830,-36.711311,142.199814
Howard Springs,3359,-12.49576,131.044464
Ingham,6127,-18.645519,146.162476
Innisfail,10144,-17.522091,146.031021
Inverell,8561,-29.774031,151.111664
Jabiru,1892,-12.67558,132.831406
Karratha,11694,-20.73649,116.84638
Katherine,10142,-14.46517,132.263474
Kawana Waters,19881,-26.705999,153.131577
Kempsey,9522,-31.078979,152.830933
Kiama,10380,-34.668282,150.852188
Kingaroy,8573,-26.53994,151.837296
Kununurra,5679,-15.77813,128.744141
Kurri Kurri,10991,-32.819328,151.47908
Kwinana,20087,-32.230129,115.781281
Kyabram,6396,-36.313351,145.050354
Lakes Entrance,5849,-37.878941,147.995132
Lara,8179,-38.02388,144.406174
Launceston,72462,-41.438759,147.134674
Leeton,7299,-34.551048,146.404831
Lemon Tree Passage,5865,-32.731579,152.037186
Leopold,6120,-38.19001,144.468246
Lismore,31433,-28.81328,153.275803
Lithgow,11129,-33.482471,150.136307
Mackay,75924,-21.15345,149.165543
Mandurah,73369,-32.526901,115.721703
Maningrida,1391,-12.05111,134.22258
Mareeba,8403,-16.995001,145.423233
Maryborough,20680,-25.54073,152.704926
Maryborough,7046,-37.04562,143.739227
Medowie,5841,-32.741501,151.867599
Melbourne,3730212,-37.813938,144.963425
Melton,32369,-37.683392,144.585434
Mildura,47867,-34.185509,142.162506
Milingimbi,986,-12.10188,134.919006
Mittagong,6717,-34.45002,150.445724
Moranbah,7955,-21.99828,148.034836
Morayfield,10261,-27.108761,152.949066
Moree,8205,-29.46278,149.841568
Morwell,11585,-38.23476,146.394989
Moss Vale,6739,-34.553741,150.371155
Mount Barker,8357,-35.066667,138.866667
Mount Gambier,23210,-37.831799,140.77919
Mount Isa,22564,-20.725229,139.497269
Mudgee,9042,-32.433333,149.583333
Murray Bridge,11356,-35.119862,139.273453
Murwillumbah,6868,-28.32732,153.393387
Muswellbrook,11630,-32.261181,150.890091
Nambour,14919,-26.626129,152.959412
Nambucca Heads,6899,-30.643181,153.008835
Narrabri,7082,-30.32612,149.783707
Nelson Bay,7725,-32.720428,152.143982
Nerang,17684,-27.98941,153.336334
Newcastle,497961,-32.927792,151.784485
New Norfolk,5526,-42.78075,147.059387
Nguiu,1250,-11.75911,130.638153
Ngukurr,947,-14.73081,134.731018
Nhulunbuy,3202,-12.18652,136.782013
Northam,5858,-31.649321,116.674232
Orange,30402,-33.283089,149.100006
Pakenham,10602,-38.070179,145.474106
Palmerston,31075,-12.45722,130.836639
Parkes,11137,-33.137199,148.175903
Perth,1446715,-31.95224,115.861397
Port Augusta,12133,-32.495972,137.772812
Port Hedland,14289,-20.312149,118.610588
Port Keats,1351,-14.24029,129.52092
Portland,8842,-38.352612,141.605743
Port Lincoln,11247,-34.72625,135.87442
Port Macquarie,48553,-31.43084,152.908936
Port Pirie,12328,-33.191761,138.017456
Queanbeyan,32249,-35.354931,149.231995
Raymond Terrace,13606,-32.75,151.75
Rockhampton,65851,-23.38032,150.505951
Roebourne,19264,-20.772289,117.146477
Roma,5497,-26.56741,148.787506
Sale,12917,-38.11095,147.068024
Sawtell,14608,-30.36459,153.10141
Singleton,13813,-32.567421,151.166031
Somerville,7015,-38.216667,145.166667
Stawell,6991,-37.05632,142.780884
Sunbury,29926,-37.577419,144.726074
Swan Hill,9276,-35.3386,143.559525
Sydney,4394585,-33.861481,151.205475
Tamworth,38552,-31.090481,150.929047
Taree,44183,-31.91099,152.453873
Toowoomba,92802,-27.56056,151.953857
Torquay,6670,-25.283333,152.866667
Townsville,138959,-19.26639,146.805695
Traralgon,18226,-38.195278,146.541504
Tumut,6526,-35.300159,148.225052
Ulladulla,9250,-35.359058,150.472473
Ulverstone,9605,-41.160259,146.182419
Victor Harbor,7760,-35.550419,138.621536
Victoria Point,11930,-27.58329,153.311722
Wagga Wagga,55382,-35.125771,147.353745
Wangaratta,14023,-36.358459,146.320557
Warragul,9128,-38.159119,145.931183
Warrnambool,29928,-38.38176,142.487991
Warwick,12347,-28.219009,152.034378
Wellington,5428,-32.555882,148.945084
Whyalla,19646,-33.032681,137.564835
Wodonga,31518,-36.121792,146.888092
Wollongong,260918,-34.424,150.893448
Wonthaggi,5985,-38.605862,145.593552
Yeppoon,10769,-23.126829,150.744064
Young,7501,-34.313499,148.301071
Yulara,3903,-25.245291,130.980545
Oranjestad,29998,12.5166667,-70.0333333
Agdam,39451,39.99096,46.927356
Agdas,23528,40.65,47.476111
Agstafa,12542,41.118889,45.453889
Agsu,17209,40.569167,48.396476
Alunitdag,857,40.521667,46.080556
Aran,6724,40.625278,46.975556
Artyom,13435,40.472255,50.333041
Astara,15190,38.455977,48.87498
Badamdar,11398,40.339444,49.803889
Baku,1116513,40.395278,49.882222
Basqal,1234,40.7552,48.391044
Buzovna,24795,40.517888,50.113901
Ceyranbatan,5684,40.540833,49.659722
Corat,8624,40.5725,49.706389
Culfa,10820,38.9558,45.6308
Gilazi,3277,40.903896,49.335522
Gilazi,3277,40.870977,49.342333
Goranboy,7334,40.610278,46.789722
Goycay,35348,40.653056,47.740556
Gurgan,712,40.397462,50.336733
Guzdak,2462,40.374444,49.681944
Hadrut,2523,39.520018,47.0318
Haftoni,2003,38.763253,48.762231
Hasanabad,4308,39.336672,49.214143
Horadiz,2714,39.448771,47.335313
Hovsan,36293,40.374444,50.085278
Imisli,31381,39.871307,48.064094
Istisu,929,39.947532,45.962121
Kesla,17913,40.397778,49.898611
Kijaba,4567,38.532778,48.816667
Kirovskiy,34488,40.433333,49.85
Korgoz,2036,40.303056,49.62
Lerik,7094,38.772633,48.412788
Lokbatan,30694,40.323718,49.728038
Masalli,9603,39.027781,48.670276
Mastaga,40092,40.532778,50.003889
Mincivan,6353,39.029348,46.718471
Mugan,4410,40.095182,48.821136
Naftalan,7045,40.506667,46.825
Nardaran,7700,40.556111,50.005556
Neftcala,18661,39.37417,49.247224
Ordubad,9781,38.905954,46.023411
Pirsagi,5102,40.564032,49.8913
Pushkino,18182,39.458333,48.545
Puta,1018,40.296667,49.660278
Qabaqcol,1293,41.72,46.264722
Qala,2709,40.44182,50.168121
Qaracala,4211,39.813178,48.952303
Qaracuxur,72989,40.396667,49.973611
Qarayeri,5565,40.78862,46.306589
Qax,11993,41.4225,46.924167
Qazanbulaq,980,40.618611,46.645278
Qazax,18904,41.093333,45.366111
Qobu,7377,40.404722,49.713056
Qobustan,13398,40.08238,49.412048
Qovlar,12819,40.942137,45.732171
Quba,22405,41.362587,48.515186
Qusar,16022,41.427284,48.42893
Quscu,408,40.555556,46.091944
Ramana,8855,40.442222,49.980556
Sabirabad,28076,40.009458,48.475154
Sabuncu,20996,40.4425,49.948056
Sahbuz,2674,39.407222,45.573889
Salyan,36555,39.593615,48.980552
Samur,1760,41.632544,48.430248
Saray,10173,40.532222,49.716389
Sollar,205,41.639727,48.664408
Sonqar,730,40.322099,49.601085
Suraabad,1945,40.819244,49.468745
Susa,18663,39.758934,46.749187
Tovuz,12626,40.992222,45.628889
Turkan,9699,40.363889,50.215
Turyancay,307,40.7088,47.54326
Ucar,15741,40.518333,47.654167
Vurgun,2635,41.094229,45.471616
Xacmaz,37175,41.463489,48.80605
Xanlar,17816,40.586944,46.315833
Xocali,5810,39.9,46.866667
Xocali,5810,39.912973,46.790284
Xocasan,5089,40.413484,49.772088
Xudat,13625,41.630965,48.681
Yevlax,53715,40.612732,47.142329
Zabrat,21396,40.476104,49.941582
Zaqatala,18277,41.633611,46.643333
Zig,6001,40.343889,49.969167
Banja Luka,221100,44.7758333,17.1855556
Banovici,7211,44.4041667,18.4475
Barice,3697,44.5405556,18.4811111
Batkovici,4923,44.8536111,19.1963889
Bihac,75641,44.8169444,15.8708333
Bijela,3484,43.6086111,17.9519444
Bijeljina,37691,44.7569444,19.2161111
Bila,4397,43.7825,16.9252778
Bileca,13256,42.8719444,18.4297222
Blagaj,4715,43.2575,17.8886111
Blatnica,5675,44.3530556,17.5894444
Bosanska Dubica,9959,45.1766667,16.8094444
Bosanska Gradiska,13345,45.1411111,17.25
Bosanska Kostajnica,4739,45.2197222,16.5358333
Bosanska Krupa,15193,44.8825,16.1513889
Bosanski Brod,9249,45.1375,17.9897222
Bosanski Novi,8920,45.0458333,16.3802778
Bosanski Samac,3599,45.0591667,18.4669444
Bosansko Grahovo,5642,44.1794444,16.3638889
Bratunac,4717,44.1875,19.3394444
Brcko,38478,44.8727778,18.8083333
Breza,3732,44.0161111,18.2588889
Bronzani Majdan,3945,44.7869444,16.9311111
Bugojno,41378,44.0572222,17.4508333
Busovaca,4775,44.0975,17.8788889
Buzim,7229,45.0547222,16.0319444
Cajnice,3908,43.5575,19.0711111
Capljina,7923,43.1138889,17.7036111
Careva Cuprija,3954,44.2658333,18.4291667
Cazin,21741,44.9669444,15.9430556
Cecava,3847,44.6866667,17.7705556
Celinac,6670,44.7227778,17.3277778
Cim,3966,43.3527778,17.7772222
Citluk,5718,43.2286111,17.7008333
Coralici,5223,44.9830556,15.9041667
Crnici,5789,43.1288889,17.8666667
Derventa,9772,44.9772222,17.9102778
Divicani,7250,44.3666667,17.3261111
Doboj,27234,44.7347222,18.0877778
Dobrinje,3987,44.0497222,18.1194444
Dobrljin,3581,45.1469444,16.5033333
Donja Dubica,3489,45.075,18.4113889
Donja Mahala,5565,45.0469444,18.6663889
Donja Medjidja,3782,44.8025,18.4033333
Donja Orahovica,5612,44.6530556,18.3702778
Donje Dubrave,3811,44.4811111,18.6961111
Donje Vukovije,3535,44.4636111,18.7538889
Donji Vakuf,7955,44.1436111,17.4
Dreznica,3908,43.5288889,17.2819444
Drinovci,3791,43.355,17.3538889
Dubravica,3868,44.4419444,18.1180556
Foca,14614,43.505,18.7786111
Fojnica,8244,43.9625,17.8983333
Gacko,3417,43.1672222,18.5352778
Glamoc,4015,44.0458333,16.8486111
Gnojnica,3985,44.6205556,18.4466667
Gorazde,17649,43.6669444,18.9763889
Gornja Koprivna,4600,45.0119444,15.9572222
Gornja Tuzla,4864,44.5561111,18.7613889
Gornje Dubrave,4821,44.4713889,18.7297222
Gornje Zivinice,4661,44.4286111,18.6169444
Gornji Vakuf,7014,43.9380556,17.5883333
Gostovici,5802,44.415,18.1583333
Gracanica,15758,44.7033333,18.3097222
Gradacac,15659,44.8808333,18.4269444
Gromiljak,6457,43.9666667,18.0530556
Grude,4627,43.3641667,17.4205556
Hadzici,7173,43.8222222,18.2066667
Hotonj,4013,43.8947222,18.3727778
Ilici,3688,43.3472222,17.7680556
Ilijas,5854,43.9508333,18.2708333
Izacic,4089,44.875,15.7819444
Jablanica,6209,43.6602778,17.7616667
Jajce,9762,44.3422222,17.2655556
Janja,5543,44.6652778,19.2477778
Jelah,5291,44.6541667,17.9580556
Jezerski,4361,44.9808333,16.0841667
Kacuni,5042,44.065,17.9386111
Kakanj,12405,44.1272222,18.1180556
Karadaglije,3700,44.5716667,18.0183333
Kiseljak,3447,44.4888889,18.5688889
Kladanj,6783,44.2263889,18.6913889
Kljuc,7244,44.535,16.7722222
Knezica,4792,45.1027778,16.6775
Kobilja Glava,3666,43.8819444,18.3891667
Kocerin,3516,43.3897222,17.485
Konjic,15950,43.6519444,17.9613889
Koran,3394,43.8102778,18.5688889
Laktasi,6464,44.9080556,17.3008333
Lamovita,4582,44.9255556,16.9072222
Lijesnica,3559,44.4941667,18.0741667
Listica,9370,43.3833333,17.5927778
Livno,11748,43.8269444,17.0077778
Ljubinje,4235,42.9508333,18.0886111
Ljubuski,9987,43.1969444,17.545
Lokvine,3928,44.2047222,17.8563889
Lopare,3614,44.6377778,18.8427778
Lukavac,12607,44.5419444,18.5258333
Lukavica,4084,44.7627778,18.1688889
Maglajani,4221,44.9486111,17.3494444
Maglaj,7398,44.5491667,18.0966667
Mala Kladusa,6033,45.1341667,15.8586111
Malesici,3764,44.7380556,18.2738889
Maricka,3707,44.8588889,16.8522222
Maslovare,4899,44.5655556,17.5336111
Milici,8210,44.1316667,19.0316667
Mionica,8701,44.8672222,18.4630556
Modrica,5135,44.9544444,18.3036111
Mostar,104517,43.3433333,17.8080556
Mostre,4009,44.025,18.1413889
Mramor,3918,44.5916667,18.5644444
Mrkonjic Grad,14737,44.4158333,17.0861111
Nevesinje,7312,43.2586111,18.1133333
Novi Seher,4416,44.5102778,18.0258333
Novi Travnik,10006,44.1711111,17.6575
Obudovac,2171,44.965,18.6122222
Odzak,11621,45.0111111,18.3266667
Olovo,3305,44.13,18.5827778
Omarska,6466,44.89,16.8991667
Orasac,3856,44.6288889,16.0711111
Orasje,3613,45.0355556,18.6933333
Orguz,4371,43.7738889,16.8638889
Ostra Luka,3923,45.0,18.5883333
Ostrozac,5456,44.9086111,15.9402778
Otoka,6595,44.96,16.1791667
Pajic Polje,4026,43.9758333,17.5275
Pale,7458,43.8161111,18.5694444
Pazaric,4787,43.7886111,18.1608333
Pecigrad,6514,45.0544444,15.8969444
Peci,3650,44.6272222,16.7861111
Petkovci,2211,44.4530556,19.0761111
Piskavica,3797,44.8341667,16.9888889
Pjanici,3537,44.9836111,15.8227778
Podbrdo,4028,44.4408333,17.0138889
Podhum,5801,43.7230556,17.0011111
Podzvizd,6665,45.1741667,15.8736111
Polje,3799,43.8805556,18.0744444
Posusje,5114,43.4722222,17.3266667
Potoci,8311,43.4086111,17.8786111
Pribinic,3558,44.6105556,17.6905556
Priboj,4351,44.6027778,18.9313889
Prijedor,36346,44.9813889,16.7130556
Prnjavor,7098,44.8702778,17.6627778
Prozor,10349,43.8222222,17.6091667
Puracic,3461,44.5469444,18.4766667
Radisici,4071,43.2219444,17.5430556
Rodoc,5159,43.3088889,17.8069444
Rogatica,4946,43.8008333,19.0025
Rumboci,3854,43.8322222,17.5011111
Sanica,5666,44.6141667,16.6411111
Sanski Most,13550,44.7652778,16.6655556
Sarajevo,696726,43.85,18.3833333
Sekovici,6315,44.2986111,18.8527778
Serici,3663,44.4652778,18.5580556
Sipovo,10737,44.2813889,17.0838889
Skender Vakuf,6866,44.4908333,17.3775
Skokovi,3553,45.0313889,15.9144444
Sladna,4304,44.7294444,18.4241667
Sokolac,8842,43.9397222,18.8016667
Solina,4780,44.5602778,18.6947222
Srbac,7380,45.0977778,17.525
Srebrenica,2861,44.1063889,19.2969444
Srebrenik,6723,44.7077778,18.4880556
Stanari,3590,44.7472222,17.8294444
Stijena,10844,44.9352778,16.0172222
Stolac,7733,43.0844444,17.9575
Stupari,4424,44.3147222,18.6841667
Sturlic,5013,45.0638889,15.7780556
Sumatac,4987,45.0988889,15.8575
Svodna,4387,45.0372222,16.5383333
Svojat,3515,44.3947222,18.7391667
Tesanjka,5666,44.6730556,18.0127778
Tesanj,7549,44.6116667,17.9872222
Teslic,6404,44.6063889,17.8597222
Todorovo,9560,45.0883333,15.9308333
Tojsici,6587,44.4813889,18.7869444
Tolisa,4282,45.0430556,18.6427778
Tomislavgrad,7737,43.7180556,17.2266667
Travnik,31127,44.2266667,17.6705556
Trebinje,33177,42.7119444,18.3441667
Trn,7553,44.8597222,17.2363889
Trzacka Rastela,6617,44.9733333,15.7902778
Turbe,4766,44.2436111,17.5713889
Tuzla,142484,44.5427778,18.6694444
Ugljevik,3452,44.6636111,19.0202778
Ustikolina,4446,43.5836111,18.79
Vares,7193,44.1644444,18.3283333
Varoska Rijeka,6573,45.0847222,16.0141667
Velagici,4972,44.5572222,16.7316667
Velika Kladusa,19330,45.1894444,15.8116667
Velika Obarska,5142,44.8052778,19.1641667
Vidosi,3905,43.7713889,17.0283333
Visegrad,6086,43.7847222,19.2991667
Visoko,17890,43.9888889,18.1780556
Vitez,8140,44.1544444,17.7902778
Vitina,4384,43.2375,17.4838889
Vlasenica,4508,44.1819444,18.9405556
Vogosca,8179,43.9019444,18.3480556
Voljevac,3764,43.8786111,17.6591667
Vozuca,3209,44.3613889,18.3577778
Vrnograc,6859,45.1636111,15.9536111
Zabrisce,4261,43.7925,16.9422222
Zavidovici,14380,44.4458333,18.1497222
Zboriste,4922,45.1458333,16.0177778
Zeljezno Polje,5783,44.4083333,17.9319444
Zenica,164422,44.2013889,17.9063889
Zepce,8502,44.4266667,18.0377778
Zivinice,13640,44.4494444,18.6497222
Zivinice,3718,44.5472222,17.375
Zvornik,8024,44.3869444,19.1013889
Bathsheba,1765,13.2166667,-59.5166667
Blackmans,623,13.1833333,-59.5333333
Bridgetown,98511,13.1,-59.6166667
Crab Hill,727,13.3166667,-59.6333333
Greenland,623,13.25,-59.5666667
Hillaby,519,13.2166667,-59.5833333
Holetown,1350,13.1833333,-59.65
Oistins,2285,13.0666667,-59.5333333
Speightstown,3634,13.25,-59.65
Abhaynagar,42658,23.0166667,89.4666667
Badarganj,32604,25.6666667,89.05
Bajitpur,34564,24.2166667,90.95
Bandarban,32526,22.2,92.2166667
Baniachang,37812,24.5166667,91.3666667
Barisal,280437,22.7,90.3666667
Bera,39608,24.0833333,89.6166667
Bhairab Bazar,105470,24.0666667,90.9666667
Bhandaria,30222,22.4833333,90.0666667
Bheramara,38164,24.0333333,88.9666667
Bhola,99090,22.6833333,90.65
Chandpur,120183,23.15,90.7166667
Char Bhadrasan,34427,23.3166667,90.2166667
Chhagalnaiya,39339,23.03,91.5069444
Chhatak,39223,25.0333333,91.6666667
Chilmari,49742,25.55,89.7166667
Dhaka,6493177,23.7230556,90.4086111
Dhamrai,38003,23.9122222,90.2683333
Dinajpur,206251,25.6333333,88.6333333
Dohar,45549,23.5883333,90.1469444
Faridpur,112200,23.6,89.8333333
Fatikchhari,39974,22.725,91.7675
Feni,84038,23.0186111,91.41
Gafargaon,34181,24.4333333,90.5666667
Gaurnadi,40524,22.9666667,90.2333333
Gazipur,132249,23.8,90.65
Habiganj,88770,24.3833333,91.4166667
Hajiganj,44349,23.2511111,90.8591667
Ishurdi,82005,24.1333333,89.0833333
Jaipur Hat,73076,25.1,89.0166667
Jamalpur,167914,24.9166667,89.9333333
Jhikargachha,41962,23.1166667,89.1166667
Kalia,40497,23.05,89.6333333
Kaliganj,45636,23.4166667,89.1333333
Keshabpur,30930,22.9166667,89.2166667
Khagrachari,50364,23.1,91.9666667
Khulna,1342429,22.8,89.55
Kishorganj,90700,24.4333333,90.7666667
Laksham,82299,23.2472222,91.1425
Lakshmipur,61710,22.95,90.8333333
Lalmanir Hat,65135,25.9,89.45
Lalmohan,42225,22.3166667,90.7166667
Madaripur,84799,23.1752778,90.2072222
Manikchhari,24836,22.8386111,91.8455556
Manikganj,85800,23.8552778,90.0125
Mathbaria,29764,22.3,89.95
Maulvi Bazar,57448,24.4833333,91.7833333
Mehendiganj,39429,22.8166667,90.5333333
Mirzapur,41142,24.1,90.1
Morrelganj,31651,22.4666667,89.85
Muktagachha,24687,24.7666667,90.2333333
Nabinagar,31675,23.8916667,90.9733333
Nageshwari,49431,25.9666667,89.7166667
Nalchiti,38708,22.6333333,90.2833333
Naral,55118,23.1666667,89.5
Narayanganj,223773,23.6233333,90.5011111
Narsingdi,281110,23.9208333,90.7180556
Nawabganj,142373,24.6,88.2833333
Netrakona,79025,24.8833333,90.7166667
Pabna,137904,24.0,89.25
Palang,67659,23.2166667,90.35
Panchagarh,48536,26.3333333,88.5666667
Parbatipur,48026,25.65,88.9166667
Patiya,51367,22.3030556,91.9783333
Phultala,37990,22.7,89.5166667
Pirganj,34610,25.8666667,88.3666667
Pirojpur,54424,22.5666667,89.9833333
Rajshahi,700206,24.3666667,88.6
Ramganj,55247,23.1,90.85
Ramgarh,28017,22.9702778,91.7966667
Rangpur,285586,25.75,89.25
Raozan,25711,22.5661111,91.9325
Raypur,64659,23.05,90.7666667
Sakhipur,40874,24.3,90.1833333
Sarankhola,36475,22.3,89.7833333
Sarishabari,81334,24.7333333,89.8333333
Satkhira,128933,22.7166667,89.1
Sherpur,107431,25.0166667,90.0166667
Shibganj,35965,24.6833333,88.1666667
Sirajganj,167501,24.45,89.7166667
Sunamganj,76491,25.0666667,91.4
Teknaf,40562,20.8666667,92.3
Thakurgaon,71104,26.0333333,88.4666667
Tungi,337620,23.89,90.4058333
Aalst,77534,50.933333,4.033333
Aalter,18802,51.083333,3.45
Aarschot,27656,50.983333,4.833333
Aartselaar,14193,51.133333,4.383333
Alken,10933,50.866667,5.3
Alveringem,4910,51.016667,2.716667
Amay,13307,50.55,5.316667
Amel,5221,50.35,6.15
Andenne,24055,50.483333,5.1
Anderlues,11597,50.4,4.266667
Anhee,7125,50.316667,4.883333
Ans,27297,50.65,5.533333
Anthisnes,4116,50.483333,5.516667
Antoing,7507,50.566667,3.45
Antwerp,459805,51.216667,4.416667
Anzegem,13920,50.833333,3.466667
Ardooie,9161,50.983333,3.2
Arendonk,12247,51.316667,5.083333
Arlon,26179,49.683333,5.816667
As,7250,51.016667,5.583333
Asse,28985,50.916667,4.2
Assenede,13495,51.233333,3.75
Assesse,6279,50.366667,5.016667
Ath,26681,50.633333,3.783333
Attert,4491,49.766667,5.783333
Aubange,14932,49.583333,5.8
Aubel,4119,50.7,5.85
Avelgem,9106,50.766667,3.433333
Awans,8612,50.666667,5.466667
Aywaille,10636,50.466667,5.666667
Baarle-Hertog,2305,51.45,4.933333
Baelen,3928,50.633333,5.966667
Balen,19978,51.166667,5.15
Bassenge,8151,50.766667,5.6
Bastogne,14395,50,5.716667
Beaumont,6645,50.233333,4.233333
Beauraing,8242,50.116667,4.966667
Beauvechain,6334,50.783333,4.766667
Beernem,14512,51.15,3.333333
Beerse,16208,51.316667,4.866667
Beersel,23228,50.766667,4.3
Begijnendijk,9178,51.016667,4.766667
Bekkevoort,5714,50.95,4.966667
Beloeil,13405,50.55,3.716667
Beringen,40930,51.05,5.216667
Berlaar,10370,51.116667,4.65
Berlare,13853,51.033333,4
Berloz,2770,50.7,5.216667
Bernissart,11588,50.466667,3.633333
Bertem,9215,50.866667,4.633333
Bertogne,2852,50.083333,5.666667
Bertrix,8063,49.85,5.25
Bever,1932,50.916667,4.316667
Beveren,45179,51.216667,4.25
Beyne-Heusay,11608,50.616667,5.65
Bierbeek,8994,50.833333,4.766667
Bievre,3207,49.933333,5.016667
Bilzen,29622,50.866667,5.516667
Binche,32030,50.4,4.166667
Blankenberge,18230,51.316667,3.133333
Blegny,12745,50.666667,5.733333
Bocholt,12346,51.166667,5.583333
Boechout,12145,51.166667,4.5
Bonheiden,14260,51.033333,4.533333
Boom,15810,51.083333,4.366667
Boortmeerbeek,11570,50.983333,4.566667
Borgloon,9955,50.8,5.333333
Bornem,19997,51.1,4.233333
Borsbeek,10334,51.2,4.483333
Bouillon,5347,49.8,5.066667
Boussu,20058,50.433333,3.8
Boutersem,7702,50.85,4.833333
Braine-le-Chateau,9627,50.683333,4.266667
Braine-le-Comte,20133,50.6,4.133333
Braives,5672,50.633333,5.15
Brasschaat,37040,51.283333,4.45
Brecht,25908,51.35,4.633333
Bredene,14862,51.233333,2.966667
Bree,14363,51.133333,5.6
Brugelette,3358,50.6,3.85
Brugge,116709,51.216667,3.233333
Brunehaut,7592,50.5,4.416667
Brussels,1019022,50.833333,4.333333
Buggenhout,13510,51.016667,4.2
Bullingen,5340,50.416667,6.266667
Burdinne,2799,50.583333,5.066667
Butgenbach,5516,50.433333,6.2
Celles,5471,50.716667,3.45
Cerfontaine,4500,50.166667,4.416667
Chapelle-lez-Herlaimont,14353,50.466667,4.283333
Charleroi,200132,50.416667,4.433333
Chastre,6243,50.6,4.633333
Chatelet,35238,50.4,4.516667
Chaudfontaine,20960,50.583333,5.633333
Chaumont-Gistoux,10943,50.683333,4.733333
Chievres,6045,50.583333,3.8
Chimay,9720,50.05,4.316667
Chiny,4897,49.733333,5.333333
Ciney,14830,50.3,5.1
Clavier,4092,50.416667,5.366667
Colfontaine,19964,50.383333,3.866667
Comblain-au-Pont,5308,50.466667,5.583333
Courcelles,29473,50.466667,4.366667
Court-Saint-etienne,9353,50.65,4.566667
Couvin,13518,50.05,4.483333
Crisnee,2587,50.716667,5.4
Dalhem,6391,50.716667,5.716667
Damme,10924,51.25,3.283333
Daverdisse,1299,50.016667,5.116667
Deerlijk,11292,50.85,3.35
De Haan,11766,51.266667,3.033333
Deinze,27777,50.983333,3.533333
Denderleeuw,16969,50.883333,4.066667
Dendermonde,43055,51.033333,4.116667
Dentergem,8038,50.966667,3.416667
De Panne,9799,51.1,2.583333
De Pinte,10020,51,3.65
Dessel,8707,51.233333,5.116667
Destelbergen,16853,51.05,3.8
Diepenbeek,17699,50.9,5.4
Diest,22516,50.983333,5.05
Diksmuide,15515,51.033333,2.866667
Dilbeek,39482,50.85,4.266667
Dinant,12875,50.266667,4.916667
Dison,13642,50.616667,5.85
Doische,2739,50.133333,4.75
Donceel,2712,50.65,5.316667
Dour,16861,50.4,3.783333
Drogenbos,4843,50.783333,4.316667
Duffel,16011,51.1,4.516667
Durbuy,10251,50.35,5.466667
Edegem,21839,51.15,4.45
Eeklo,19116,51.183333,3.566667
Eghezee,14352,50.6,4.9
Ellezelles,5566,50.733333,3.683333
Enghien,11367,50.7,4.033333
Engis,5737,50.583333,5.416667
Erezee,2930,50.3,5.55
Erquelinnes,9396,50.3,4.116667
Esneux,13497,50.533333,5.566667
Essen,16754,51.466667,4.466667
Estaimpuis,9340,50.7,3.25
Etalle,5228,49.683333,5.6
Eupen,18029,50.633333,6.033333
Evergem,31615,51.116667,3.7
Faimes,3349,50.666667,5.266667
Farciennes,11488,50.433333,4.55
Fauvillers,1952,49.85,5.666667
Ferrieres,4434,50.4,5.6
Fexhe-le-Haut-Clocher,3082,50.666667,5.4
Fleron,15994,50.616667,5.683333
Fleurus,22080,50.483333,4.533333
Flobecq,3142,50.733333,3.733333
Floreffe,7480,50.433333,4.783333
Florennes,10723,50.25,4.616667
Florenville,5464,49.7,5.3
Frameries,20598,50.4,3.9
Galmaarden,7939,50.75,3.966667
Gavere,11888,50.933333,3.666667
Gedinne,4416,49.983333,4.933333
Geel,34697,51.166667,5
Geer,2682,50.666667,5.166667
Geetbets,5813,50.883333,5.116667
Gembloux,21676,50.566667,4.683333
Genappe,14266,50.6,4.45
Genk,63666,50.966667,5.5
Gent,231493,51.05,3.716667
Geraardsbergen,30807,50.766667,3.866667
Gerpinnes,11977,50.333333,4.516667
Gesves,6150,50.4,5.066667
Gingelom,7930,50.75,5.116667
Gistel,11084,51.166667,2.95
Glabbeek,5070,50.866667,4.95
Gooik,8957,50.8,4.116667
Gouvy,4706,50.185,5.941111
Grez-Doiceau,12367,50.733333,4.7
Grimbergen,33561,50.933333,4.383333
Grobbendonk,10724,51.2,4.716667
Haacht,13541,50.983333,4.633333
Haaltert,17129,50.9,4
Habay,7704,49.733333,5.616667
Halen,8548,50.95,5.1
Halle,34479,50.733333,4.233333
Hamme,22891,51.1,4.133333
Hamoir,3500,50.433333,5.533333
Hamois,6662,50.333333,5.133333
Hannut,14129,50.666667,5.083333
Harelbeke,25978,50.85,3.3
Hasselt,69222,50.933333,5.333333
Hastiere,5147,50.216667,4.833333
Havelange,4790,50.383333,5.233333
Heers,6689,50.75,5.283333
Heist-op-den-Berg,37873,51.083333,4.716667
Hemiksem,9504,51.15,4.35
Hensies,6390,50.433333,3.666667
Herbeumont,1612,49.783333,5.233333
Herentals,25912,51.183333,4.833333
Herent,19218,50.9,4.666667
Herenthout,8379,51.15,4.766667
Herk-de-Stad,11566,50.933333,5.166667
Herne,6459,50.716667,4.033333
Heron,4305,50.55,5.083333
Herselt,13493,51.05,4.883333
Herstal,36503,50.666667,5.633333
Herstappe,93,50.733333,5.416667
Herve,16544,50.633333,5.8
Herzele,16523,50.883333,3.883333
Hoegaarden,6110,50.783333,4.9
Hoeilaart,10272,50.766667,4.466667
Hoeselt,9265,50.85,5.483333
Holsbeek,9094,50.916667,4.75
Hooglede,9900,50.983333,3.083333
Hoogstraten,18524,51.4,4.766667
Hotton,4969,50.266667,5.45
Houffalize,4614,50.133333,5.783333
Houthulst,8951,50.983333,2.95
Houyet,4505,50.183333,5.016667
Hove,7968,51.15,4.466667
Huldenberg,9137,50.783333,4.583333
Hulshout,9198,51.083333,4.783333
Huy,19973,50.516667,5.233333
Ichtegem,13582,51.1,3
Ieper,35089,50.85,2.883333
Incourt,4395,50.7,4.783333
Ingelmunster,10603,50.916667,3.25
Ittre,6014,50.65,4.266667
Izegem,26382,50.916667,3.2
Jabbeke,13488,51.183333,3.083333
Jalhay,7688,50.566667,5.966667
Jodoigne,11930,50.716667,4.866667
Juprelle,8354,50.716667,5.533333
Jurbise,9483,50.533333,3.933333
Kalmthout,17485,51.383333,4.466667
Kampenhout,10784,50.95,4.55
Kapellen,26410,51.316667,4.433333
Kapelle-op-den-Bos,8859,51.016667,4.366667
Kaprijke,6114,51.216667,3.6
Kasterlee,17765,51.25,4.95
Keerbergen,12363,51,4.616667
Kinrooi,11946,51.15,5.75
Knesselare,7889,51.133333,3.416667
Knokke-Heist,33781,51.35,3.266667
Koekelare,8317,51.083333,2.966667
Koksijde,21027,51.1,2.65
Kontich,20290,51.133333,4.45
Kortemark,11937,51.033333,3.033333
Kortenaken,7374,50.916667,5.066667
Kortenberg,17774,50.883333,4.533333
Kortessem,8042,50.866667,5.366667
Kortrijk,73879,50.833333,3.266667
Kraainem,12815,50.866667,4.466667
Kruibeke,14815,51.166667,4.316667
Kruishoutem,8179,50.9,3.516667
Kuurne,12638,50.85,3.283333
Laarne,11600,51.033333,3.85
La Bruyere,8194,50.283333,4.583333
La Hulpe,7415,50.733333,4.483333
La Louviere,76668,50.466667,4.183333
Lanaken,24771,50.883333,5.65
Landen,14458,50.75,5.083333
La Roche-en-Ardenne,4200,50.183333,5.583333
Lebbeke,17372,51,4.133333
Ledegem,9102,50.85,3.116667
Lede,16813,50.966667,3.983333
Leglise,3865,49.8,5.533333
Lendelede,5393,50.883333,3.233333
Lennik,8818,50.8,4.15
Lens,3902,50.55,3.9
Leopoldsburg,14149,51.116667,5.25
Lessines,17687,50.716667,3.833333
Leuven,92892,50.883333,4.7
Libin,4609,49.983333,5.25
Lichtervelde,8169,51.033333,3.15
Liedekerke,11980,50.866667,4.083333
Liege,182597,50.633333,5.566667
Lierneux,3332,50.283333,5.8
Lille,15466,51.233333,4.833333
Limbourg,5612,50.616667,5.933333
Lincent,2884,50.716667,5.033333
Linkebeek,4823,50.766667,4.333333
Lint,7982,51.133333,4.5
Lobbes,5467,50.35,4.25
Lochristi,19696,51.1,3.833333
Lokeren,37567,51.1,3.983333
Lommel,31993,51.233333,5.3
Londerzeel,17274,51,4.3
Lontzen,4862,50.683333,6
Lovendegem,9272,51.1,3.6
Lubbeek,13574,50.883333,4.833333
Lummen,13689,50.983333,5.2
Maaseik,23684,51.1,5.8
Maasmechelen,36251,50.816667,5.666667
Machelen,12252,50.916667,4.433333
Maldegem,22092,51.216667,3.45
Malmedy,11514,50.416667,6.033333
Manage,22196,50.5,4.216667
Manhay,3128,50.3,5.666667
Marche-en-Famenne,16856,50.2,5.333333
Marchin,5063,50.466667,5.233333
Martelange,1440,49.833333,5.733333
Mechelen,77531,51.033333,4.466667
Meerhout,9346,51.133333,5.083333
Meise,18497,50.933333,4.333333
Meix-devant-Virton,2637,49.6,5.483333
Melle,10687,51,3.8
Menen,31916,50.8,3.116667
Merbes-le-Chateau,3999,50.316667,4.15
Merchtem,14660,50.966667,4.233333
Merelbeke,22047,51,3.75
Merksplas,7963,51.366667,4.866667
Mesen,975,50.766667,2.9
Messancy,7144,49.6,5.816667
Mettet,12014,50.316667,4.666667
Meulebeke,10948,50.95,3.283333
Middelkerke,17789,51.183333,2.816667
Modave,3825,50.45,5.3
Moerbeke,5855,51.166667,3.933333
Mol,32659,51.183333,5.1
Momignies,5183,50.033333,4.166667
Mons,91277,50.45,3.933333
Mont-Saint-Guibert,6557,50.633333,4.616667
Moorslede,10720,50.883333,3.066667
Morlanwelz,18233,50.45,4.233333
Mortsel,24525,51.166667,4.466667
Mouscron,52069,50.733333,3.216667
Musson,4225,49.566667,5.7
Namur,106284,50.466667,4.866667
Nandrin,5480,50.5,5.416667
Nassogne,5081,50.133333,5.35
Nazareth,10890,50.966667,3.6
Neerpelt,16122,51.216667,5.416667
Neufchateau,6416,49.833333,5.433333
Nevele,11153,51.033333,3.55
Niel,8656,51.116667,4.333333
Nieuwerkerken,6466,50.866667,5.183333
Nieuwpoort,10845,51.133333,2.75
Nijlen,20792,51.166667,4.65
Ninove,34795,50.833333,4.016667
Nivelles,24149,50.6,4.333333
Ohey,4324,50.433333,5.133333
Olen,11070,51.15,4.85
Olne,3836,50.583333,5.75
Onhaye,3014,50.25,4.833333
Oosterzele,13151,50.95,3.8
Oostkamp,21489,51.15,3.233333
Oostrozebeke,7489,50.916667,3.333333
Opglabbeek,9452,51.05,5.583333
Opwijk,12045,50.966667,4.183333
Oreye,3373,50.733333,5.366667
Ostend,69011,51.216667,2.916667
Oudenaarde,27935,50.85,3.6
Oudenburg,8752,51.183333,3
Oud-Heverlee,10533,50.833333,4.666667
Oud-Turnhout,12354,51.316667,4.983333
Ouffet,2477,50.433333,5.466667
Oupeye,23594,50.7,5.65
Overijse,23486,50.766667,4.533333
Overpelt,13344,51.216667,5.416667
Paliseul,5037,49.9,5.133333
Pecq,5302,50.683333,3.333333
Peer,15551,51.133333,5.466667
Pepingen,4261,50.75,4.15
Pepinster,9530,50.566667,5.816667
Peruwelz,16647,50.516667,3.583333
Perwez,7340,50.616667,4.816667
Philippeville,8051,50.2,4.533333
Pittem,6589,51,3.266667
Plombieres,9596,50.733333,5.95
Pont-a-Celles,15909,50.5,4.35
Poperinge,19537,50.85,2.716667
Profondeville,11401,50.383333,4.866667
Putte,15276,51.066667,4.633333
Puurs,15944,51.083333,4.283333
Quaregnon,18491,50.433333,3.85
Quievrain,6560,50.4,3.683333
Raeren,9925,50.683333,6.116667
Ranst,17405,51.2,4.55
Ravels,13560,51.366667,5
Remicourt,5050,50.683333,5.333333
Rendeux,2320,50.233333,5.5
Retie,10069,51.266667,5.066667
Riemst,15809,50.8,5.6
Rijkevorsel,10606,51.35,4.766667
Rixensart,21616,50.716667,4.533333
Rochefort,11978,50.166667,5.216667
Roeselare,56016,50.95,3.133333
Ronse,24204,50.75,3.6
Rotselaar,15007,50.95,4.716667
Rouvroy,1946,49.533333,5.5
Ruiselede,5129,51.05,3.4
Rumes,4918,50.55,3.3
Rumst,14521,51.083333,4.416667
Sainte-Ode,2310,50.083333,5.533333
Saint-Ghislain,22500,50.45,3.816667
Saint-Hubert,5538,50.016667,5.383333
Saint-Leger,3092,49.616667,5.65
Saint-Nicolas,22586,50.633333,5.533333
Schelle,7675,51.133333,4.333333
Schilde,20373,51.233333,4.566667
Schoten,33622,51.25,4.5
Seneffe,11025,50.516667,4.25
Seraing,60737,50.6,5.483333
Silly,7887,50.65,3.916667
Sint-Amands,7653,51.05,4.2
Sint-Genesius-Rode,17990,50.75,4.35
Sint-Gillis-Waas,17658,51.216667,4.133333
Sint-Katelijne-Waver,19487,51.066667,4.533333
Sint-Laureins,6657,51.25,3.516667
Sint-Lievens-Houtem,9146,50.916667,3.85
Sint-Martens-Latem,8303,51.016667,3.633333
Sint-Niklaas,69010,51.166667,4.133333
Sint-Pieters-Leeuw,30446,50.783333,4.233333
Sint-Truiden,37859,50.8,5.2
Soignies,24869,50.583333,4.066667
Sombreffe,7452,50.516667,4.6
Somme-Leuze,4532,50.333333,5.366667
Soumagne,15237,50.616667,5.75
Spa,10756,50.5,5.866667
Sprimont,12945,50.5,5.666667
Stabroek,17294,51.333333,4.366667
Staden,10786,50.983333,3.016667
Stavelot,6646,50.383333,5.933333
Steenokkerzeel,10566,50.916667,4.516667
Stekene,16989,51.2,4.033333
Stoumont,2970,50.416667,5.8
Tellin,2353,50.083333,5.216667
Temse,26054,51.133333,4.216667
Tenneville,2510,50.1,5.533333
Ternat,14569,50.866667,4.183333
Tervuren,20623,50.816667,4.516667
Tessenderlo,16574,51.066667,5.083333
Theux,11587,50.533333,5.816667
Thuin,14682,50.333333,4.283333
Tielt,19299,51,3.316667
Tienen,31743,50.8,4.95
Tinlot,2236,50.483333,5.366667
Tintigny,3538,49.683333,5.516667
Tongeren,29816,50.783333,5.466667
Torhout,18933,51.066667,3.1
Tournai,67720,50.6,3.383333
Tremelo,13721,50.983333,4.7
Trooz,7559,50.566667,5.683333
Tubize,21859,50.683333,4.2
Turnhout,39654,51.316667,4.95
Vaux-sur-Sure,4581,49.916667,5.583333
Verlaine,3600,50.6,5.316667
Verviers,52824,50.583333,5.866667
Veurne,11983,51.066667,2.666667
Vielsalm,7291,50.284722,5.918611
Villers-la-Ville,9592,50.583333,4.533333
Villers-le-Bouillet,6059,50.583333,5.266667
Vilvoorde,36955,50.933333,4.433333
Virton,11259,49.566667,5.533333
Vise,17054,50.733333,5.7
Vorselaar,7238,51.2,4.766667
Vosselaar,10317,51.316667,4.883333
Waarschoot,7762,51.15,3.6
Waasmunster,10460,51.1,4.083333
Wachtebeke,6911,51.166667,3.866667
Waimes,6661,50.416667,6.116667
Walcourt,17501,50.25,4.416667
Walhain,5992,50.616667,4.7
Wanze,12918,50.533333,5.216667
Waregem,35896,50.883333,3.416667
Waremme,13737,50.683333,5.25
Wasseiges,2471,50.616667,5
Waterloo,28910,50.716667,4.383333
Wavre,32112,50.716667,4.616667
Welkenraedt,9006,50.65,5.966667
Wellen,6804,50.85,5.316667
Wellin,2937,50.083333,5.116667
Wemmel,14406,50.916667,4.3
Wervik,17340,50.783333,3.033333
Westerlo,22579,51.083333,4.916667
Wetteren,22930,51,3.883333
Wevelgem,30954,50.8,3.166667
Wezembeek-Oppem,13245,50.85,4.483333
Wichelen,11014,51,3.983333
Wielsbeke,8828,50.9,3.366667
Wijnegem,8932,51.233333,4.533333
Willebroek,22808,51.066667,4.366667
Wingene,12887,51.066667,3.266667
Wommelgem,11917,51.2,4.516667
Wuustwezel,18117,51.383333,4.6
Yvoir,8169,50.333333,4.883333
Zandhoven,12306,51.216667,4.65
Zaventem,28188,50.883333,4.466667
Zedelgem,21968,51.15,3.133333
Zele,20236,51.066667,4.033333
Zelzate,11901,51.2,3.816667
Zemst,21096,50.983333,4.466667
Zingem,6588,50.9,3.65
Zoersel,20642,51.266667,4.7
Zomergem,8158,51.116667,3.55
Zonhoven,19922,50.983333,5.35
Zonnebeke,11581,50.866667,2.983333
Zottegem,24434,50.866667,3.8
Zoutleeuw,7897,50.833333,5.1
Zuienkerke,2736,51.266667,3.166667
Zulte,14670,50.916667,3.433333
Zutendaal,6962,50.933333,5.566667
Zwevegem,23358,50.8,3.333333
Zwijndrecht,18249,51.216667,4.333333
Banfora,63883,10.6333333,-4.7666667
Batie,6525,9.8833333,-2.9166667
Bobo Dioulasso,370809,11.2,-4.3
Bogande,9916,12.9713889,-0.1436111
Boromo,13240,11.75,-2.9333333
Boulsa,17623,12.6675,-0.5758333
Bousse,11093,13.1,-3.3833333
Dano,11224,11.15,-3.0666667
Dedougou,47235,12.4666667,-3.4666667
Diapaga,24302,12.0708333,1.7888889
Diebougou,12814,10.9666667,-3.25
Djibo,22821,14.1022222,-1.6305556
Dori,27554,14.0333333,-0.0333333
Gaoua,7300,10.2991667,-3.2508333
Garango,29076,11.8,-0.5505556
Gayeri,2004,12.6497222,0.4930556
Gorom-Gorom,6743,14.4438889,-0.2361111
Gouloure,6719,12.2305556,-1.9288889
Gourcy,17982,13.2166667,-2.35
Hounde,23617,11.5,-3.5166667
Kaya,39130,13.0916667,-1.0844444
Kokologo,25958,12.1897222,-1.8855556
Kombissiri,19180,12.0655556,-1.3375
Kongoussi,26338,13.3258333,-1.5347222
Koudougou,86965,12.25,-2.3666667
Koupela,19850,12.1794444,-0.3516667
Leo,21151,11.1,-2.1
Manga,15269,11.6636111,-1.0730556
Nouna,21144,12.7333333,-3.8666667
Orodara,18635,10.9491667,-4.9341667
Ouagadougou,1031330,12.3702778,-1.5247222
Ouahigouya,61439,13.5833333,-2.4166667
Ouargaye,30726,11.5033333,0.0572222
Pitmoaga,8041,12.2397222,-1.8766667
Po,21003,11.1697222,-1.145
Reo,24616,12.3166667,-2.4666667
Sapouy,3862,11.5544444,-1.7736111
Sindou,3942,10.6666667,-5.1666667
Solenzo,10451,12.1833333,-4.0833333
Tenkodogo,37123,11.78,-0.3697222
Toma,9926,12.65,-4.4166667
Tougan,17702,13.0666667,-3.0666667
Yako,23080,12.9666667,-2.2666667
Ziniare,12783,12.5822222,-1.2983333
Zorgo,19789,12.2488889,-0.6158333
Ahtopol,857,42.1,27.95
Ajtos,21177,42.7,27.25
Alfatar,1941,43.95,27.2833333
Antonovo,1950,43.15,26.1666667
Ardino,3497,41.5833333,25.1333333
Asenovgrad,50735,42.0166667,24.8666667
Balgarovo,2344,42.6166667,27.3
Bankja,8104,42.7,23.1333333
Bansko,8412,41.8394444,23.5
Batak,4103,41.95,24.2166667
Batanovci,2532,42.5997222,22.9505556
Belene,10401,43.65,25.1166667
Belica,3334,41.9569444,23.5725
Belogradcik,4865,43.6272222,22.6836111
Beloslav,7817,43.1833333,27.7
Belovo,4533,42.2166667,24.0166667
Berkovica,13574,43.2361111,23.1258333
Bjala,1753,43.45,25.7333333
Bjala,10284,42.8833333,27.8833333
Blagoevgrad,69547,42.0166667,23.1
Bobosevo,1528,42.1597222,23.0163889
Bobovdol,7222,42.3697222,23.0172222
Boljarovo,1474,42.15,26.8166667
Borovo,2520,43.5,25.8
Botevgrad,20497,42.9,23.7833333
Bracigovo,4600,42.0166667,24.3666667
Bregovo,2629,44.1516667,22.6425
Breznik,4150,42.7413889,22.8980556
Brezovo,1920,42.35,25.0833333
Buhovo,3069,42.7666667,23.5666667
Burgas,188554,42.5,27.4666667
Carevo,5023,42.1666667,27.85
Cepelare,5342,41.7333333,24.6833333
Cirpan,17622,42.2,25.3333333
Dalgopol,4911,43.05,27.35
Debelec,4396,43.0333333,25.6166667
Devin,6766,41.7333333,24.4
Dimitrovgrad,42827,42.05,25.6
Dimovo,1145,43.7416667,22.7269444
Dobric,92309,43.5666667,27.8333333
Dolna Banja,4471,42.3,23.7666667
Dolna Mitropolija,3746,43.4666667,24.5333333
Dolni Dabnik,5561,43.4,24.4333333
Dospat,2391,41.65,24.1666667
Dragoman,3196,42.9188889,22.9316667
Drjanovo,8017,42.9827778,25.4922222
Dulovo,6463,43.8166667,27.15
Dupnica,38656,42.2666667,23.1166667
Dve Mogili,4561,43.6,25.8666667
Elena,6171,42.9333333,25.8833333
Elhovo,11723,42.1666667,26.5666667
Elin Pelin,4699,42.6666667,23.6
Etropole,11024,42.8333333,24.0
Gabrovo,61109,42.8747222,25.3341667
Galabovo,9080,42.1333333,25.85
Godec,4551,43.015,23.0441667
Gramada,1812,43.8344444,22.6586111
Guljanci,4135,43.6333333,24.7
Gurkovo,2933,42.6666667,25.7333333
Gurkovo,2933,42.6666667,25.8
Harmanli,20065,41.9333333,25.9
Haskovo,78865,41.9402778,25.5694444
Ihtiman,11554,42.4333333,23.8166667
Iskar,4109,43.3833333,27.4833333
Isperih,8276,43.7166667,26.8333333
Ivajlovgrad,4451,41.5333333,26.1333333
Jablanica,2662,43.0313889,24.1127778
Jakoruda,5931,42.0252778,23.6841667
Jambol,75290,42.4833333,26.5
Kalofer,3736,42.6166667,24.9833333
Kameno,5133,42.5666667,27.3
Kaolinovo,1489,43.6166667,27.1166667
Karlovo,24464,42.6333333,24.8
Karnobat,19902,42.65,26.9833333
Kaspican,3211,43.3,27.1833333
Kavarna,10626,43.4333333,28.3333333
Kazanlak,50336,42.6166667,25.4
Kermen,2172,42.5,26.25
Kilifarevo,2484,42.9833333,25.6333333
Kjustendil,47315,42.2838889,22.6911111
Klisura,1708,42.7,24.45
Kneza,9201,43.5,24.0833333
Kocerinovo,2431,42.0833333,23.0666667
Kojnare,3678,43.35,24.1333333
Koprivstica,2618,42.6333333,24.35
Kostenec,9660,42.2666667,23.8166667
Kostinbrod,11239,42.8166667,23.2166667
Kotel,7117,42.8833333,26.45
Kozloduj,10602,43.7833333,23.7333333
Kresna,3756,41.7333333,23.15
Kresna,3756,41.8,23.1833333
Kricim,8478,42.05,24.4666667
Krivodol,2646,43.3744444,23.4844444
Krumovgrad,4478,41.4666667,25.65
Kubrat,7327,43.8,26.5
Kula,3393,43.8877778,22.5213889
Laki,2720,41.85,24.8166667
Letnica,3980,43.3116667,25.0733333
Levski,13203,43.3666667,25.1333333
Ljaskovec,9000,43.1111111,25.7283333
Ljubimec,7623,41.8333333,26.0833333
Lom,24906,43.8138889,23.2361111
Lovec,39788,43.1333333,24.7166667
Loznica,2512,43.9666667,27.9166667
Lukovit,9020,43.2,24.1666667
Madan,7179,41.5,24.95
Magliz,3465,42.6,25.55
Malko Tarnovo,2920,41.9833333,27.5333333
Melnik,251,41.5166667,23.4
Mericleri,2233,42.1333333,25.5
Mezdra,8667,43.15,23.7
Momcilgrad,6974,41.5333333,25.4166667
Montana,44982,43.4125,23.225
Nedelino,4676,41.45,25.0833333
Nesebar,5864,42.65,27.7333333
Nikolaevo,2834,43.3166667,25.9833333
Nikopol,4884,43.7,24.9
Nova Zagora,24034,42.4833333,26.0166667
Novi Iskar,13194,42.8,23.35
Novi Pazar,13017,43.35,27.2
Obzor,1864,42.8166667,27.8833333
Omurtag,8858,43.1,26.4166667
Opaka,3353,43.45,26.1666667
Orjahovo,4464,43.7333333,23.9666667
Panagjuriste,18755,42.5,24.1833333
Pavlikeni,12129,43.2427778,25.3219444
Pazardzik,76254,42.2,24.3333333
Pernik,82185,42.6,23.0333333
Perustica,5248,42.05,24.55
Pestera,19161,42.0333333,24.3
Petric,29956,41.4,23.2166667
Pirdop,7923,42.7,24.1833333
Plackovci,2098,42.8166667,25.4666667
Pleven,132542,43.4166667,24.6166667
Pliska,1115,43.3666667,27.1166667
Plovdiv,332088,42.15,24.75
Pomorie,12941,42.55,27.65
Popovo,18836,43.35,26.2333333
Pordim,2711,43.3833333,24.85
Pravec,5071,42.8833333,23.9166667
Primorsko,1807,42.2666667,27.7666667
Provadija,14253,43.1833333,27.4333333
Radnevo,13157,42.3,25.9333333
Radomir,14971,42.5444444,22.9577778
Rakitovo,8029,41.9833333,24.0833333
Rakovski,16009,42.3,24.9666667
Razgrad,31791,43.5333333,26.5166667
Razlog,12347,41.8902778,23.4791667
Rila,2936,42.1333333,23.1333333
Roman,2329,43.15,23.9166667
Rudozem,4041,41.4833333,24.85
Ruse,157519,43.8563889,25.9708333
Sabla,3603,43.5333333,28.5333333
Sadovo,2461,42.1333333,24.9333333
Saedinenie,6363,42.2666667,24.55
Samokov,26582,42.3333333,23.55
Sandanski,26282,41.5666667,23.2833333
Senovo,1481,43.65,26.3666667
Septemvri,8741,42.2166667,24.1
Sevlievo,23574,43.0258333,25.1136111
Silistra,38166,44.1166667,27.2666667
Simeonovgrad,7509,42.0333333,25.8333333
Simitli,7275,41.8833333,23.1166667
Sipka,1520,42.7166667,25.3333333
Slavjanovo,5160,43.4666667,24.8666667
Sliven,94252,42.6858333,26.3291667
Smoljan,31870,41.5852778,24.6919444
Sofia,1062065,42.6833333,23.3166667
Sopot,10141,43.0166667,24.4166667
Sozopol,3548,42.4166667,27.7
Sredec,9362,42.3488889,27.1941667
Stara Zagora,137760,42.4327778,25.6419444
Straldza,5865,42.6,26.6833333
Strazica,5006,43.2333333,25.9666667
Strelca,4699,42.5,24.3166667
Suhindol,2407,43.1916667,25.1811111
Sumen,85394,43.2766667,26.9291667
Sungurlare,3441,42.7666667,26.7833333
Suvorovo,4514,43.3333333,27.6
Svilengrad,17378,41.7666667,26.2
Svistov,29762,43.6230556,25.3538889
Svoge,7093,42.9666667,23.35
Tervel,7019,43.75,27.4
Teteven,10697,42.9166667,24.2666667
Topolovgrad,5824,42.0833333,26.3333333
Tran,2608,42.8352778,22.6516667
Trastenik,5627,43.5166667,24.4666667
Trjavna,10180,42.8666667,25.5
Trojan,22431,42.8833333,24.7166667
Tutrakan,9472,44.05,26.6166667
Tvardica,6434,42.7,25.9
Ugarcin,2896,43.1,24.4166667
Varna,307952,43.2166667,27.9166667
Veliki Preslav,8669,43.1666667,26.8166667
Velingrad,24129,42.0166667,24.0
Vetovo,4835,43.7,26.2666667
Vidin,50315,43.99,22.8725
Vraca,48995,43.21,23.5625
Zavet,2979,43.7666667,26.6666667
Zemen,2145,42.4788889,22.7491667
Zlatarica,2847,43.05,25.9
Zlatica,4881,42.7166667,24.1333333
Zlatograd,7673,41.3833333,25.1
Manama,147097,26.2361111,50.5830556
Sitrah,37690,26.1547222,50.6205556
Bubanza,12728,-3.0833333,29.3944444
Bujumbura,330539,-3.3761111,29.36
Bururi,19740,-3.9511111,29.6166667
Cankuzo,6585,-3.2194444,30.5527778
Cibitoke,14220,-2.8861111,29.1236111
Gitega,23168,-3.425,29.9333333
Karuzi,10705,-3.1013889,30.1647222
Kayanza,19443,-2.9222222,29.6222222
Kirundo,6084,-2.5847222,30.0972222
Makamba,19642,-4.1347222,29.805
Muramvya,18039,-3.2680556,29.6166667
Muyinga,71095,-2.8494444,30.3361111
Mwaro,4924,-3.5263889,29.7027778
Ngozi,21506,-2.9083333,29.8277778
Rumonge,6074,-3.9722222,29.4388889
Rutana,20894,-3.9191667,29.9936111
Ruyigi,38459,-3.4763889,30.2486111
Abomey,82158,7.1833333,1.9833333
Abomey-Calavi,385823,6.45,2.35
Allada,20094,6.65,2.15
Aplahoue,19862,6.9333333,1.6833333
Athieme,13585,6.5833333,1.6666667
Banikoara,22487,11.3,2.4333333
Bassila,23616,9.0166667,1.6666667
Bembereke,24006,10.2288889,2.6652778
Beterou,13108,9.2,2.2666667
Bohicon,125116,7.2,2.0666667
Come,29208,6.4,1.8833333
Cotonou,690584,6.35,2.4333333
Cove,38566,7.2333333,2.3
Djougou,202834,9.705,1.6669444
Dogbo,41312,6.8166667,1.7833333
Kandi,109705,11.1341667,2.9386111
Ketou,22341,7.3666667,2.6
Lokossa,86987,6.6333333,1.7166667
Malanville,37117,11.8613889,3.3858333
Natitingou,80896,10.3066667,1.375
Nikki,54009,9.9338889,3.2044444
Ouidah,83506,6.3666667,2.0833333
Parakou,163759,9.35,2.6166667
Pobe,32983,6.9666667,2.6833333
Sakete,30111,6.7166667,2.6666667
Savalou,30187,7.9333333,1.9666667
Save,75973,8.0333333,2.4833333
Tchaourou,20971,8.8833333,2.6
Hamilton,902,32.2941667,-64.7838889
Saint George,1802,32.3816667,-64.6780556
Abapo,2419,-18.8333333,-63.4666667
Achacachi,8447,-16.05,-68.6833333
Aiquile,8225,-18.1666667,-65.1666667
Arani,3906,-17.5666667,-65.7666667
Ascension,14431,-15.7,-63.0833333
Atocha,1833,-20.9333333,-66.2333333
Bermejo,28287,-22.65,-64.3666667
Betanzos,4847,-19.5505556,-65.4533333
Boyuibe,3075,-20.4166667,-63.2833333
Buena Vista,4283,-17.45,-63.6666667
Camargo,4715,-20.65,-65.2166667
Camiri,27971,-20.05,-63.5166667
Capinota,5157,-17.7166667,-66.2333333
Caracollo,4708,-17.65,-67.1666667
Caranavi,14915,-15.8166667,-67.55
Challapata,8016,-18.9,-66.7666667
Charagua,3026,-19.8,-63.2166667
Chimore,5147,-16.9833333,-65.1333333
Chulumani,2953,-16.4,-67.5166667
Cliza,8655,-17.6,-65.9333333
Cobija,26583,-11.0333333,-68.7333333
Cochabamba,900440,-17.3833333,-66.15
Colomi,3923,-17.35,-65.8666667
Colquechaca,1706,-18.6666667,-66.0166667
Colquiri,3934,-17.4166667,-67.1333333
Comarapa,4446,-17.9,-64.4833333
Concepcion,6901,-16.4333333,-60.9
Copacabana,4508,-16.15,-69.0833333
Coripata,2107,-16.3,-67.6
Coroico,2361,-16.1833333,-67.7333333
Cotoca,18349,-17.75,-62.9833333
El Carmen,14297,-17.85,-63.2166667
El Torno,15544,-17.9833333,-63.3833333
Entre Rios,2685,-21.5333333,-64.2
Eucaliptus,2373,-17.5833333,-67.5166667
Guanay,3915,-15.4833333,-67.8833333
Guayaramerin,36010,-10.8,-65.3833333
Huanuni,15492,-18.2666667,-66.85
Irpa Irpa,2968,-17.7166667,-66.2666667
Jorochito,4013,-18.05,-63.4333333
La Belgica,5504,-17.55,-63.2166667
La Guardia,10259,-17.9,-63.3333333
Lahuachaca,3235,-17.3666667,-67.6666667
La Paz,812819,-16.5,-68.15
Limoncito,3622,-18.0166667,-63.4
Llallagua,28070,-18.4166667,-66.6333333
Los Negros,3046,-17.7333333,-63.4333333
Machacamarca,2045,-18.1666667,-67.0333333
Mairana,4298,-18.1166667,-63.9333333
Mapiri,2598,-15.25,-68.1666667
Mineros,14386,-17.1166667,-63.2333333
Mizque,2911,-17.9333333,-65.3166667
Monteagudo,8290,-19.8166667,-63.9833333
Montero,88623,-17.3333333,-63.25
Oruro,208687,-17.9833333,-67.15
Padilla,2920,-19.3,-64.3
Pailon,9304,-17.65,-62.75
Patacamaya,12261,-17.2333333,-67.9166667
Poopo,1720,-18.3666667,-66.9666667
Portachuelo,11486,-17.35,-63.4
Potosi,141254,-19.5836111,-65.7530556
Puerto Pailas,2675,-17.65,-62.8
Puerto Quijarro,10393,-17.7833333,-57.7666667
Puerto Suarez,12254,-18.95,-57.8
Punata,15195,-17.55,-65.8333333
Quime,2405,-16.9833333,-67.2166667
Reyes,7376,-14.3166667,-67.3833333
Riberalta,74018,-10.9833333,-66.1
Robore,9883,-18.3333333,-59.75
Rurrenabaque,11750,-14.4666667,-67.5666667
Samaipata,3250,-18.15,-63.8666667
San Borja,19641,-14.8166667,-66.85
San Carlos,4180,-17.4,-63.75
San Ignacio,23570,-16.3666667,-60.95
San Javier,7025,-16.3333333,-62.6333333
San Joaquin,3557,-18.45,-59.55
San Jose,9749,-17.85,-60.75
San Julian,7706,-17.7833333,-62.8666667
San Lorenzo,2921,-21.4333333,-64.7833333
San Matias,6352,-16.3666667,-58.4
San Miguel,4906,-16.7,-61.0166667
San Pedro,2990,-18.2833333,-59.8166667
San Rafael,2384,-16.75,-60.5666667
San Ramon,4390,-13.2833333,-64.7166667
San Ramon,6422,-14.4833333,-63.15
Santa Barbara,2434,-20.9166667,-66.05
Santa Rita,2444,-17.9666667,-63.35
Santa Rosa,4459,-14.1666667,-66.8833333
Santa Rosa,4575,-16.7833333,-61.8
Sipe Sipe,3777,-17.45,-66.3833333
Sorata,2190,-15.7666667,-68.6333333
Sucre,224846,-19.0430556,-65.2591667
Tarabuco,2428,-19.1666667,-64.9166667
Tarata,8045,-17.6166667,-66.0166667
Tarija,159275,-21.5166667,-64.75
Tipuani,2585,-15.55,-68.0
Totoral,1645,-18.5166667,-66.8666667
Trinidad,84264,-14.8333333,-64.9
Tupiza,22234,-21.45,-65.7166667
Uncia,5142,-18.45,-66.6166667
Urubicha,3269,-15.3833333,-62.95
Uyuni,10294,-20.4666667,-66.8333333
Villamontes,18762,-21.25,-63.5
Villazon,30254,-22.1,-65.6
Viloco,1900,-16.95,-67.55
Warnes,22038,-17.5,-63.1666667
Yacuiba,82808,-22.0333333,-63.6833333
Abadiania,7062,-16.1,-48.8
Abaete,20371,-19.15,-45.45
Abaetetuba,78052,-1.7,-48.9
Abreu e Lima,81960,-7.9,-34.883333
Acajutiba,14349,-11.666667,-38.016667
Acara,12803,-1.95,-48.183333
Acarau,28389,-2.883333,-40.116667
Acari,9159,-6.516667,-36.633333
Acopiara,24562,-6.1,-39.45
Acu,36126,-5.577222,-36.9075
Acucena,14506,-19.066667,-42.533333
Adamantina,31079,-21.683333,-51.066667
Afogados da Ingazeira,25060,-7.75,-37.65
Afonso Bezerra,6947,-5.498056,-36.509167
Afonso Claudio,13543,-20.083333,-41.133333
Afua,7031,-.166667,-50.383333
Agrestina,14453,-8.45,-35.95
Agua Branca,5161,-9.283333,-37.916667
Agua Branca,13912,-5.883333,-42.633333
Aguai,27503,-22.066667,-46.966667
Agua Preta,16444,-8.7,-35.516667
Aguas Belas,22563,-9.116667,-37.116667
Aguas de Lindoia,18806,-22.483333,-46.65
Aguas Formosas,11512,-17.083333,-40.95
Aguas Vermelhas,16410,-15.75,-41.466667
Agudos,30808,-22.466667,-49
Aguia Branca,2554,-18.983333,-40.733333
Aimores,19133,-19.5,-41.066667
Alagoa Grande,16406,-7.05,-35.633333
Alagoa Nova,9182,-7.066667,-35.766667
Alagoinha,7474,-6.933333,-35.55
Alagoinhas,122692,-12.116667,-38.433333
Alcantara,5655,-2.4,-44.4
Alegre,19758,-20.766667,-41.533333
Alegrete,77540,-29.766667,-55.766667
Alem Paraiba,33907,-21.866667,-42.683333
Alenquer,26291,-1.933333,-54.766667
Alexandria,9769,-6.416667,-38.016667
Alfenas,71407,-21.433333,-45.95
Alfredo Chaves,6422,-20.633333,-40.75
Alhandra,10788,-7.433333,-34.9
Alianca,17329,-7.583333,-35.216667
Almeirim,20464,-1.533333,-52.566667
Almenara,29333,-16.183333,-40.7
Almirante Tamandare,89500,-25.3,-49.316667
Alpinopolis,13286,-20.866667,-46.383333
Alta Floresta,40468,-9.9,-55.9
Altamira,70890,-3.2,-52.2
Alterosa,9277,-21.25,-46.133333
Altinho,11913,-8.483333,-36.066667
Altinopolis,14616,-21.025278,-47.374444
Alto Araguaia,8780,-17.316667,-53.2
Alto Longa,4435,-5.25,-42.2
Altonia,11242,-23.933333,-53.9
Alto Paraguai,6149,-14.5,-56.516667
Alto Parana,10888,-23.083333,-52.366667
Alto Piquiri,10039,-24.016667,-53.466667
Altos,28769,-5.05,-42.466667
Alvaraes,5527,-3.2,-64.833333
Alvares Machado,21642,-22.133333,-51.5
Alvinopolis,12068,-20.1,-43.05
Alvorada,10232,-12.47,-49.082222
Amambai,20261,-23.083333,-55.216667
Amapa,6256,2.05,-50.8
Amaraji,16660,-8.4,-35.45
Amarante,8828,-6.233333,-42.833333
Amarante do Maranhao,11510,-5.6,-46.75
Amargosa,22531,-13.033333,-39.6
America Dourada,14018,-11.466667,-41.433333
Americana,196026,-22.740278,-47.334444
Americo Brasiliense,34332,-21.716667,-48.116667
Amontada,13520,-3.383333,-39.833333
Amparo,41498,-22.7,-46.783333
Ampere,14275,-25.916667,-53.466667
Anadia,9574,-9.7,-36.3
Anage,3762,-14.6,-41.133333
Anajatuba,5627,-3.266667,-44.616667
Ananas,8874,-6.360278,-47.91
Ananindeua,433956,-1.366667,-48.383333
Anapolis,319592,-16.333333,-48.966667
Anastacio,18817,-20.516667,-55.8
Andira,20758,-23.0488,-50.2276
Andradas,26773,-22.066667,-46.566667
Andradina,52407,-20.9,-51.383333
Andrelandia,10079,-21.733333,-44.3
Angatuba,14476,-23.483333,-48.416667
Angicos,7729,-5.666389,-36.600833
Angra dos Reis,153637,-23,-44.3
Anicuns,15685,-16.466667,-49.966667
Anori,8064,-3.783333,-61.633333
Antonina,16152,-25.4314,-48.7184
Aparecida,34237,-22.8418,-45.2287
Aparecida do Taboado,17332,-20.083333,-51.083333
Apiai,18260,-24.511926,-48.844671
Apodi,16757,-5.65,-37.8
Apucarana,107086,-23.55,-51.483333
Aquidaba,10596,-10.283333,-37.033333
Aquidauana,35304,-20.466667,-55.8
Aquiraz,65117,-3.9,-38.366667
Aracaju,490184,-10.916667,-37.066667
Aracati,44294,-4.566667,-37.766667
Aracatuba,170028,-21.2,-50.416667
Araci,15089,-11.333333,-38.95
Aracoiaba,13425,-4.383333,-38.816667
Aracoiaba,13095,-7.8,-35.05
Aracoiaba da Serra,15395,-23.5049,-47.6185
Aracruz,58272,-19.816667,-40.266667
Aracuai,22005,-16.866667,-42.066667
Aragarcas,16781,-15.916667,-52.25
Araguacu,7603,-12.894167,-49.773056
Araguaina,114959,-7.16,-48.0575
Araguari,96567,-18.633333,-48.183333
Araguatins,17106,-5.600278,-47.933056
Araioses,8667,-2.89,-41.903611
Arapiraca,166566,-9.75,-36.65
Arapongas,97513,-23.383333,-51.45
Araquari,35691,-26.3692,-48.7221
Arara,7641,-6.833333,-35.75
Ararangua,43445,-28.933333,-49.483333
Araraquara,185191,-21.783333,-48.166667
Araras,107465,-22.366667,-47.383333
Arari,16777,-3.466667,-44.783333
Araripe,11860,-7.2,-40.133333
Araripina,38570,-7.55,-40.566667
Araruama,109638,-22.883333,-42.333333
Araruna,7667,-6.533333,-35.733333
Araua,4747,-11.266667,-37.616667
Araucaria,111303,-25.583333,-49.416667
Araxa,82597,-19.583333,-46.916667
Arcos,33356,-20.283333,-45.533333
Arcoverde,57164,-8.416667,-36.916667
Areado,10689,-21.35,-46.15
Areal,11041,-22.228889,-43.106944
Areia,13825,-6.966667,-35.7
Areia Branca,18372,-4.953889,-37.132222
Areia Branca,7414,-10.766667,-37.316667
Arenapolis,9060,-14.433333,-56.816667
Ares,7231,-6.183333,-35.15
Arinos,10078,-15.916667,-46.066667
Aripuana,27043,-9.166667,-60.633333
Ariquemes,58102,-9.933333,-63.066667
Armacao dos Buzios,23463,-22.75,-41.883333
Aroeiras,7019,-7.516667,-35.683333
Arraial do Cabo,26164,-22.966667,-42.016667
Arraias,6881,-12.977222,-46.891667
Arroio do Meio,16331,-29.4,-51.95
Arroio dos Ratos,13405,-30.083333,-51.716667
Arroio Grande,16117,-32.233333,-53.083333
Artur Nogueira,40404,-22.583333,-47.15
Aruja,72078,-23.4,-46.333333
Assai,12545,-23.366667,-50.816667
Assare,11369,-6.866667,-39.866667
Assis,87473,-22.666667,-50.416667
Astolfo Dutra,10999,-21.316667,-42.866667
Astorga,20129,-23.216667,-51.666667
Atalaia,18908,-9.516667,-36.033333
Atibaia,110970,-23.124167,-46.562222
Augusto Correa,16280,-1.033333,-46.666667
Auriflama,11971,-20.683333,-50.566667
Aurora,10757,-6.95,-38.966667
Autazes,9614,-3.583333,-59.133333
Avare,81287,-23.083333,-48.916667
Axixa do Tocantins,9007,-5.551111,-47.595556
Bacabal,72374,-4.233333,-44.783333
Bady Bassitt,14216,-20.933333,-49.466667
Baependi,12853,-21.95,-44.883333
Bage,98943,-31.333333,-54.1
Baiao,12316,-2.683333,-49.683333
Baixa Grande,7534,-11.95,-40.183333
Baixo Guandu,19292,-19.516667,-41.016667
Balsas,68058,-7.516667,-46.033333
Bambui,18840,-20.016667,-45.966667
Bananeiras,7371,-6.75,-35.616667
Bandeirantes,29495,-23.1,-50.35
Barao de Cocais,22387,-19.933333,-43.466667
Barao de Melgaco,4353,-16.216667,-55.966667
Barauna,14113,-5.083333,-37.616667
Barbacena,122213,-21.233333,-43.766667
Barbalha,33944,-7.316667,-39.283333
Barbosa Ferraz,9048,-24.066667,-52.05
Barcarena,29872,-1.5,-48.666667
Barcelos,7356,-1,-62.966667
Bariri,28802,-22.066667,-48.733333
Barra,20895,-11.083333,-43.166667
Barra Bonita,37247,-22.483333,-48.533333
Barra da Estiva,12618,-13.633333,-41.316667
Barra de Sao Francisco,20743,-18.75,-40.866667
Barra do Bugres,31313,-15.083333,-57.183333
Barra do Corda,48902,-5.5,-45.25
Barra do Garcas,52402,-15.883333,-52.25
Barra do Pirai,87669,-22.466111,-43.827778
Barra dos Coqueiros,28590,-10.9,-37.05
Barra Mansa,164054,-22.533333,-44.183333
Barras,21597,-4.25,-42.3
Barra Velha,17665,-26.6406,-48.6851
Barreiras,158296,-12.133333,-45
Barreirinha,11257,-2.793611,-57.068889
Barreirinhas,17437,-2.75,-42.833333
Barreiros,35565,-8.816667,-35.2
Barretos,101222,-20.55,-48.55
Barrinha,26981,-21.2,-48.15
Barro,11519,-6.716667,-38.866667
Barroquinha,12410,-2.983333,-41.083333
Barroso,16975,-21.183333,-43.966667
Barueri,251999,-23.516667,-46.883333
Bastos,17681,-21.933333,-50.716667
Bataipora,7346,-22.333333,-53.283333
Batalha,11820,-9.683333,-37.133333
Batalha,8744,-4.016667,-42.083333
Batatais,51977,-20.883333,-47.616667
Baturite,22417,-4.333333,-38.883333
Bauru,335031,-22.316667,-49.066667
Bayeux,91058,-7.133333,-34.933333
Bebedouro,71863,-20.933333,-48.466667
Beberibe,37028,-4.183333,-38.133333
Bela Cruz,12715,-3.05,-40.183333
Bela Vista,18127,-22.1,-56.516667
Bela Vista de Goias,14289,-16.966667,-48.95
Bela Vista do Paraiso,14332,-23,-51.2
Belem,1407737,-1.45,-48.483333
Belem,15550,-6.716667,-35.5
Belem de Sao Francisco,11124,-8.766667,-38.966667
Belford Roxo,466101,-22.761995,-43.404654
Belmonte,9806,-15.85,-38.9
Belo Horizonte,2373255,-19.916667,-43.933333
Belo Jardim,49923,-8.333333,-36.433333
Belo Oriente,18471,-19.233333,-42.466667
Beneditinos,5005,-5.45,-42.366667
Benevides,49813,-1.366667,-48.25
Benjamin Constant,13998,-4.374444,-70.029722
Bento Goncalves,90854,-29.166667,-51.516667
Bequimao,5695,-2.433333,-44.783333
Bernardino de Campos,9342,-23.033333,-49.483333
Betim,384038,-19.966667,-44.216667
Bezerros,51437,-8.233333,-35.75
Bicas,12684,-21.716667,-43.066667
Biguacu,51993,-27.5,-48.666667
Birigui,102279,-21.3,-50.316667
Biritiba-Mirim,26459,-23.583333,-46.033333
Blumenau,293955,-26.9222,-49.0615
Boa Esperanca,9254,-18.55,-40.283333
Boa Esperanca,33840,-21.083333,-45.566667
Boa Esperanca do Sul,10787,-21.983333,-48.383333
Boa Viagem,24671,-5.116667,-39.733333
Boa Vista,235159,2.816667,-60.666667
Boca da Mata,17834,-9.6,-36.25
Boca do Acre,14427,-8.75,-67.383333
Bocaiuva,32115,-17.116667,-43.816667
Bodoco,11329,-7.783333,-39.916667
Boituva,48756,-23.283333,-47.683333
Bom Conselho,27801,-9.166667,-36.683333
Bom Despacho,40304,-19.716667,-45.25
Bom Jardim,12343,-7.016667,-46.483333
Bom Jardim,11716,-22.15,-42.416667
Bom Jardim,13523,-7.783333,-35.583333
Bom Jesus,12666,-9.066667,-44.366667
Bom Jesus da Lapa,40693,-13.25,-43.416667
Bom Jesus do Galho,12476,-19.833333,-42.316667
Bom Jesus do Itabapoana,30822,-21.133333,-41.683333
Bom Jesus dos Perdoes,12422,-23.133333,-46.466667
Bom Sucesso,13786,-21.033333,-44.766667
Bonfim,5769,3.083333,-59.95
Bonito,14504,-21.133333,-56.466667
Bonito,8867,-8.483333,-35.733333
Boqueirao,11566,-7.483333,-36.116667
Boquim,14848,-11.15,-37.616667
Boquira,6306,-12.816667,-42.766667
Borba,11918,-4.388889,-59.593611
Borborema,11759,-21.616667,-49.066667
Borda da Mata,12814,-22.266667,-46.166667
Botelhos,11073,-21.65,-46.4
Botucatu,113865,-22.866667,-48.433333
Braco do Norte,22375,-28.283333,-49.183333
Braganca,57164,-1.05,-46.766667
Braganca Paulista,125099,-22.95,-46.566667
Brasileia,11200,-11,-68.733333
Brasilia,2207812,-15.783333,-47.916667
Brasilia de Minas,14730,-16.211944,-44.430833
Brejinho,7625,-6.183333,-35.35
Brejo,11636,-3.683333,-42.783333
Brejo da Madre de Deus,27370,-8.15,-36.366667
Brejo Santo,27384,-7.483333,-39
Breves,46474,-1.666667,-50.483333
Brodowski,18366,-20.983333,-47.666667
Brotas,18690,-22.283333,-48.116667
Brumadinho,27564,-20.133333,-44.216667
Brumado,41990,-14.216667,-41.666667
Brusque,88286,-27.1,-48.933333
Bueno Brandao,5777,-22.45,-46.35
Buerarema,16002,-14.95,-39.316667
Buique,20324,-8.616667,-37.15
Bujaru,6189,-1.516667,-48.016667
Buri,15959,-23.8,-48.583333
Buritama,12712,-21.05,-50.133333
Buriti Alegre,9427,-18.15,-49.05
Buriti Bravo,17693,-5.833333,-43.833333
Buriti,7025,-3.916667,-42.95
Buriti dos Lopes,9475,-3.166667,-41.866667
Buritis,16243,-15.616667,-46.433333
Buritizeiro,25104,-17.35,-44.966667
Butia,19494,-30.116667,-51.966667
Caapora,13770,-7.516667,-34.9
Caarapo,13863,-22.633333,-54.8
Cabedelo,54841,-6.966667,-34.833333
Cabo Frio,108241,-22.883333,-42.016667
Cabreuva,38743,-23.3,-47.133333
Cabrobo,16096,-8.516667,-39.316667
Cacador,63727,-26.783333,-51
Cacapava,72341,-23.1,-45.716667
Cacapava do Sul,17522,-30.5,-53.5
Cacequi,12868,-29.883333,-54.816667
Caceres,73431,-16.066667,-57.683333
Cachoeira,16145,-12.6,-38.966667
Cachoeira do Sul,74696,-30.033333,-52.9
Cachoeiras de Macacu,46178,-22.466667,-42.65
Cachoeirinha,121086,-29.95,-51.083333
Cachoeirinha,12905,-8.483333,-36.233333
Cachoeiro de Itapemirim,187023,-20.85,-41.1
Cacimba de Dentro,7447,-6.65,-35.783333
Cacimbinhas,4618,-9.4,-37
Cacoal,55566,-11.5,-61.416667
Caconde,12434,-21.55,-46.633333
Cacu,10098,-18.616667,-51.066667
Cacule,12143,-14.5,-42.216667
Caete,33232,-19.9,-43.666667
Caetes,5386,-8.766667,-36.633333
Caetite,27188,-14.066667,-42.483333
Cafarnaum,12940,-11.7,-41.466667
Cafelandia,13777,-21.816667,-49.583333
Caiaponia,10947,-16.95,-51.816667
Caico,54935,-6.45,-37.1
Caieiras,87199,-23.36193,-46.740681
Cajamar,56684,-23.35,-46.883333
Cajati,27566,-24.728502,-48.110541
Cajazeiras,43914,-6.9,-38.566667
Cajueiro,15063,-9.716667,-36.45
Cajuru,19540,-21.283333,-47.3
Caldas Novas,63681,-17.75,-48.633333
Camacari,188763,-12.483333,-38.216667
Camamu,13924,-13.95,-39.116667
Camanducaia,17823,-22.766667,-46.15
Camapua,11119,-19.5,-54.083333
Camaqua,53170,-30.85,-51.816667
Camaragibe,148966,-8.016667,-34.966667
Cambara,21380,-23.0411,-50.0741
Cambe,91081,-23.233333,-51.25
Camboriu,49101,-26.983333,-48.633333
Cambuci,9395,-21.566667,-41.916667
Cambui,21247,-22.616667,-46.066667
Cambuquira,10116,-21.85,-45.3
Cameta,45202,-2.25,-49.5
Camocim,44482,-2.89,-40.846111
Camocim de Sao Felix,10270,-8.35,-35.766667
Campanha,12507,-21.833333,-45.4
Campestre,11802,-21.716667,-46.25
Campina Grande,348943,-7.216667,-35.883333
Campina Grande do Sul,31112,-25.3,-49.083333
Campinas,1031573,-22.9,-47.083333
Campina Verde,13137,-19.516667,-49.466667
Campo Alegre,16786,-9.8,-36.35
Campo Bom,54762,-29.683333,-51.05
Campo do Brito,8011,-10.75,-37.5
Campo Formoso,23921,-10.516667,-40.333333
Campo Grande,3054,-10.233333,-36.5
Campo Grande,729164,-20.45,-54.616667
Campo Largo,94669,-25.433333,-49.533333
Campo Maior,31740,-4.816667,-42.166667
Campos Altos,12648,-19.683333,-46.166667
Campos Belos,15583,-13.05,-46.883333
Campos,387422,-21.75,-41.3
Campos do Jordao,53320,-22.7264,-45.5792
Campos Gerais,22260,-21.233333,-45.766667
Campos Novos,22563,-27.4,-51.2
Campos Sales,17648,-7.066667,-40.383333
Campo Verde,22842,-20.416667,-54.066667
Cananeia,13786,-25.016667,-47.95
Canapi,4219,-9.133333,-37.5
Canarana,10785,-11.683333,-41.766667
Canavieiras,26376,-15.65,-38.95
Candeias,75673,-12.666667,-38.55
Candelaria,15200,-29.666667,-52.8
Candido de Abreu,5102,-24.583333,-51.333333
Candido Mendes,8613,-1.45,-45.716667
Candido Mota,28145,-22.716667,-50.383333
Canela,33529,-29.366667,-50.833333
Canguaretama,18873,-6.383333,-35.133333
Cangucu,20134,-31.4,-52.683333
Canhotinho,12074,-8.883333,-36.2
Caninde,42721,-4.366667,-39.316667
Caninde de Sao Francisco,11053,-9.65,-37.8
Canoas,328297,-29.933333,-51.183333
Canoinhas,38863,-26.166667,-50.4
Cansancao,9905,-10.683333,-39.516667
Cantagalo,14019,-21.966667,-42.366667
Cantanhede,8344,-3.65,-44.4
Canto do Buriti,11715,-8.116667,-42.966667
Canutama,6320,-6.533333,-64.333333
Capanema,47768,-1.2,-47.183333
Capao Bonito,37207,-24.016667,-48.333333
Capao da Canoa,35896,-29.766667,-50.016667
Capela,12520,-9.416667,-36.066667
Capela,16024,-10.5,-37.066667
Capela do Alto,11991,-23.466667,-47.75
Capelinha,20074,-17.7,-42.516667
Capim Grosso,17322,-11.366667,-40.016667
Capinopolis,12486,-18.683333,-49.583333
Capinzal,23799,-27.333333,-51.6
Capitao Poco,32704,-1.75,-47.083333
Capivari,35519,-23.000722,-47.502026
Capoeiras,4861,-8.75,-36.633333
Caraguatatuba,90844,-23.616667,-45.416667
Carai,6750,-17.2,-41.7
Carambei,13466,-24.933333,-50.083333
Carandai,16657,-20.933333,-43.916667
Carangola,25322,-20.733333,-42.033333
Carapicuiba,361120,-23.516667,-46.833333
Caratinga,60067,-19.783333,-42.133333
Carauari,18059,-4.879167,-66.898056
Caraubas,12462,-5.53,-37.303056
Caravelas,11322,-17.75,-39.25
Carazinho,59418,-28.3,-52.8
Cardoso,10556,-20.066667,-49.9
Careiro,6659,-3.2,-59.75
Careiro da Varzea,1092,-3.2,-59.75
Cariacica,330681,-20.266667,-40.416667
Carinhanha,11408,-14.3,-43.783333
Carira,10276,-10.35,-37.7
Carire,5488,-3.95,-40.45
Caririacu,12971,-7.033333,-39.283333
Carlos Barbosa,19106,-29.3,-51.5
Carlos Chagas,13206,-17.716667,-40.75
Carmo,11555,-21.933333,-42.616667
Carmo do Cajuru,16333,-20.183333,-44.766667
Carmo do Paranaiba,26537,-18.983333,-46.35
Carmo do Rio Claro,14446,-20.966667,-46.116667
Carmo do Rio Verde,6053,-15.35,-49.7
Carnaiba,6019,-8.7,-37.666667
Carolina,16229,-7.333333,-47.466667
Carpina,70690,-7.85,-35.25
Caruaru,235375,-8.283333,-35.966667
Carutapera,12819,-1.216667,-46.016667
Casa Branca,22498,-21.766667,-47.083333
Casa Nova,33319,-9.416667,-41.133333
Cascavel,52357,-4.116667,-38.233333
Cascavel,257174,-24.95,-53.466667
Casimiro de Abreu,19087,-22.483333,-42.2
Cassia,14391,-20.6,-46.933333
Cassilandia,18498,-19.15,-51.75
Castanhal,137410,-1.3,-47.916667
Castelo,20198,-20.6,-41.2
Castelo do Piaui,8589,-5.333333,-41.55
Castilho,11419,-20.866667,-51.483333
Castro Alves,13869,-12.75,-39.433333
Castro,42092,-24.783333,-50
Cataguases,62619,-21.4,-42.683333
Catalao,63545,-18.166667,-47.95
Catanduva,109615,-21.133333,-48.966667
Catende,23323,-8.666667,-35.716667
Catole do Rocha,19812,-6.35,-37.75
Catu,39933,-12.35,-38.383333
Caucaia,275023,-3.7,-38.65
Cavalcante,3747,-13.8,-47.5
Caxambu,22701,-21.983333,-44.933333
Caxias,117393,-4.833333,-43.35
Caxias do Sul,381277,-29.1689,-51.1785
Ceara-Mirim,32668,-5.633333,-35.433333
Cedro,14644,-6.6,-39.05
Centenario do Sul,8358,-22.8,-51.616667
Centralina,9497,-18.566667,-49.216667
Ceres,18760,-15.283333,-49.583333
Cerqueira Cesar,14261,-23.05,-49.166667
Cerquilho,35367,-23.201218,-47.757822
Cerro Largo,9548,-28.15,-54.75
Cha Grande,17117,-8.233333,-35.45
Chapada dos Guimaraes,13657,-15.433333,-55.75
Chapadinha,40805,-3.733333,-43.35
Chapeco,160160,-27.083333,-52.983333
Charqueada,12391,-22.5,-47.766667
Charqueadas,32076,-29.966667,-51.633333
Chavantes,10306,-23.033333,-49.716667
Chopinzinho,14142,-25.85,-52.5
Chorozinho,9755,-4.3,-38.483333
Cianorte,55995,-23.616667,-52.616667
Cicero Dantas,18317,-10.6,-38.383333
Cidreira,8965,-30.183333,-50.2
Claudio,21825,-20.433333,-44.766667
Clevelandia,14701,-26.4,-52.35
Coaraci,32345,-14.633333,-39.533333
Coari,50491,-4.109444,-63.138889
Cocal,12097,-3.466667,-41.566667
Codajas,11185,-3.833333,-62.083333
Codo,83289,-4.483333,-43.883333
Coelho Neto,36185,-4.25,-43
Coite do Noia,2529,-9.666667,-36.5
Colatina,101193,-19.533333,-40.616667
Colina,15042,-20.733333,-48.583333
Colinas,25159,-6.033333,-44.233333
Colombo,217002,-25.283333,-49.233333
Colonia Leopoldina,11914,-8.95,-35.65
Colorado,20449,-22.816667,-51.95
Conceicao da Barra,19310,-18.583333,-39.75
Conceicao da Feira,15838,-12.5,-39
Conceicao das Alagoas,16152,-19.916667,-48.383333
Conceicao do Almeida,9691,-12.8,-39.2
Conceicao do Araguaia,27116,-8.241111,-49.296111
Conceicao do Castelo,4538,-20.366667,-41.25
Conceicao do Coite,35172,-11.55,-39.266667
Conceicao do Mato Dentro,10708,-19.016667,-43.416667
Conceicao do Rio Verde,12402,-21.883333,-45.083333
Conchal,21351,-22.333333,-47.166667
Conchas,14301,-23.016667,-48
Concordia,55368,-27.233333,-52.016667
Condado,19585,-7.583333,-35.1
Conde,15565,-11.816667,-37.616667
Congonhas,48819,-20.5,-43.866667
Conselheiro Lafaiete,111598,-20.666667,-43.8
Conselheiro Pena,12735,-19.166667,-41.5
Contagem,627132,-19.916667,-44.1
Coracao de Jesus,12410,-16.684444,-44.360278
Coracao de Maria,6571,-12.233333,-38.75
Corbelia,12725,-24.8,-53.3
Cordeiro,15602,-22.033333,-42.366667
Cordeiropolis,25639,-22.483333,-47.466667
Coreau,12383,-3.55,-40.65
Coremas,11897,-7.016667,-37.966667
Corinto,22121,-18.35,-44.45
Cornelio Procopio,45031,-23.133333,-50.65
Coroata,34130,-4.133333,-44.133333
Coromandel,22648,-18.466667,-47.216667
Coronel Fabriciano,100918,-19.516667,-42.633333
Coronel Vivida,15841,-25.966667,-52.566667
Correia Pinto,13752,-27.583333,-50.4
Corrente,13967,-10.436111,-45.131111
Correntina,13187,-13.333333,-44.65
Corumba,96523,-19.016667,-57.65
Coruripe,31428,-10.133333,-36.166667
Cosmopolis,47773,-22.633333,-47.2
Costa Rica,12931,-23.416667,-54.65
Cotia,174832,-23.616667,-46.933333
Coxim,30216,-18.5,-54.75
Crateus,52934,-5.166667,-40.666667
Crato,88788,-7.233333,-39.383333
Cravinhos,32690,-21.316667,-47.75
Criciuma,161957,-28.666667,-49.383333
Cristalina,36532,-16.75,-47.6
Cristinapolis,6430,-11.483333,-37.766667
Crixas,11560,-14.45,-49.966667
Cruz Alta,65276,-28.65,-53.6
Cruz,8723,-2.95,-40.183333
Cruz das Almas,47846,-12.666667,-39.1
Cruz do Espirito Santo,5812,-7.133333,-35.1
Cruzeiro,72023,-22.566667,-44.966667
Cruzeiro do Oeste,15058,-23.766667,-53.066667
Cruzeiro do Sul,45517,-7.633333,-72.6
Cruzilia,12816,-21.833333,-44.8
Cubatao,118412,-23.883333,-46.416667
Cuiaba,521961,-15.583333,-56.083333
Cuite,11392,-6.483333,-36.15
Cumaru,6861,-8,-35.7
Cunha,11896,-23.083333,-44.966667
Cupira,19096,-8.616667,-35.95
Curaca,11858,-8.983333,-39.9
Curitiba,1718433,-25.416667,-49.25
Curitibanos,32142,-27.3,-50.6
Currais Novos,35561,-6.25,-36.516667
Curuca,10843,-.716667,-47.833333
Cururupu,22007,-1.833333,-44.866667
Curvelo,63955,-18.75,-44.416667
Custodia,18107,-8.116667,-37.65
Delmiro Gouveia,35260,-9.383333,-37.983333
Demerval Lobao,15285,-5.366667,-42.683333
Descalvado,26138,-21.9,-47.616667
Desterro,5374,-7.283333,-37.1
Diadema,390641,-23.7,-46.616667
Diamantina,37344,-18.25,-43.6
Diamantino,15700,-14.416667,-56.45
Dianopolis,12896,-11.700556,-46.743056
Divinopolis,193835,-20.15,-44.9
Dois Corregos,20975,-22.366667,-48.35
Dois Irmaos,28926,-29.583333,-51.083333
Dois Riachos,4565,-9.383333,-37.083333
Dois Vizinhos,22766,-25.783333,-53.083333
Domingos Martins,6061,-20.366667,-40.666667
Dom Pedrito,36912,-30.983333,-54.666667
Dom Pedro,15570,-4.483333,-44.45
Dona Ines,3709,-6.616667,-35.633333
Dores do Indaia,12859,-19.45,-45.6
Dourados,162206,-22.216667,-54.8
Dracena,37940,-21.533333,-51.483333
Duartina,11903,-22.4,-49.416667
Duque de Caxias,818339,-22.790321,-43.325009
Ecoporanga,13774,-18.383333,-40.833333
Edeia,9838,-17.3,-49.916667
Eirunepe,17175,-6.666667,-69.866667
Eldorado,9075,-23.783333,-54.316667
Elesbao Veloso,10430,-6.216667,-42.133333
Elias Fausto,12705,-23.033333,-47.383333
Eloi Mendes,19413,-21.616667,-45.566667
Embu,221737,-23.65,-46.85
Embu-Guacu,76311,-23.816667,-46.8
Encantado,16637,-29.25,-51.883333
Encruzilhada do Sul,17199,-30.533333,-52.516667
Encruzilhada,4711,-15.516667,-40.9
Engenheiro Beltrao,14955,-23.783333,-52.25
Entre Rios,27406,-11.933333,-38.083333
Envira,9957,-7.3,-70.216667
Erechim,96089,-27.633333,-52.283333
Escada,48084,-8.366667,-35.233333
Esmeraldas,103252,-19.75,-44.316667
Espera Feliz,13031,-20.65,-41.916667
Esperanca,18817,-7.016667,-35.85
Esperantina,21044,-3.9,-42.233333
Esperantinopolis,13167,-4.883333,-44.883333
Espinosa,17549,-14.933333,-42.833333
Espirito Santo do Pinhal,37449,-22.2,-46.75
Esplanada,18859,-11.783333,-37.95
Espumoso,10340,-28.733333,-52.85
Estancia,55655,-11.266667,-37.433333
Estancia Velha,40391,-29.65,-51.183333
Esteio,84903,-29.85,-51.166667
Estreito,17647,-5.783333,-43.25
Estrela,24200,-28.1,-50.983333
Euclides da Cunha,29739,-10.516667,-39.016667
Eusebio,37290,-3.9,-38.45
Extrema,13682,-22.85,-46.316667
Extremoz,17992,-5.7,-35.3
Exu,10875,-7.516667,-39.716667
Fagundes,5137,-7.35,-35.8
Farias Brito,11288,-6.916667,-39.566667
Farroupilha,57651,-29.233333,-51.35
Fartura,12405,-23.383333,-49.5
Faxinal,13464,-23.983333,-51.366667
Feijo,12951,-8.15,-70.35
Feira de Santana,481926,-12.25,-38.95
Feira Grande,3985,-9.85,-36.7
Feira Nova,12985,-7.933333,-35.35
Fernandopolis,61932,-20.266667,-50.233333
Ferraz de Vasconcelos,167904,-23.533333,-46.366667
Firminopolis,9084,-16.666667,-50.316667
Flexeiras,7783,-9.266667,-35.716667
Flores da Cunha,20522,-29.0287,-51.1822
Flores,11694,-7.85,-37.983333
Floresta,18100,-8.6,-38.566667
Florestopolis,13250,-22.866667,-51.4
Floriano,48588,-6.783333,-43.016667
Florianopolis,412731,-27.583333,-48.566667
Fonte Boa,16060,-2.533333,-66.016667
Formiga,56405,-20.45,-45.416667
Formosa do Rio Preto,14365,-11.046389,-45.059722
Formosa,81233,-15.533333,-47.333333
Formoso do Araguaia,14963,-11.796667,-49.466944
Forquilhinha,23021,-28.75,-49.466667
Fortaleza,2416920,-3.316667,-41.416667
Fortuna,9755,-5.683333,-44.066667
Foz do Iguacu,293526,-25.55,-54.583333
Franca,305047,-20.533333,-47.4
Francisco Beltrao,57618,-26.083333,-53.066667
Francisco Morato,171793,-23.279503,-46.746403
Francisco Sa,13997,-16.466667,-43.5
Franco da Rocha,108860,-23.324821,-46.718475
Frederico Westphalen,20896,-27.366667,-53.4
Frei Paulo,7047,-10.55,-37.533333
Frutal,40931,-20.033333,-48.916667
Fundao,12715,-19.916667,-40.4
Gameleira,19424,-8.583333,-35.4
Gandu,21566,-13.75,-39.5
Garanhuns,110087,-8.9,-36.483333
Gararu,2977,-9.966667,-37.083333
Garca,41303,-22.233333,-49.616667
Garibaldi,30364,-29.25,-51.533333
Gaspar,33659,-26.933333,-48.966667
General Salgado,8084,-20.65,-50.366667
Getulio Vargas,13695,-27.833333,-52.266667
Gilbues,4920,-9.838889,-45.353889
Girau do Ponciano,9606,-9.916667,-36.833333
Girua,12170,-28.033333,-54.35
